table_id,feature_id,name,lat,long
1,4576,Subil,23.62455277,91.01924903
7,4067,Rasulpur,23.64554791,91.00882795
8,1690,Fatehabad,23.60271468,91.04058559
9,1651,Elahabad,23.55307068,91.02258543
12,3245,Mohanpur,23.52711973,91.02693482
14,572,Barkamta,23.49589892,91.01711361
16,30,Aganagar,23.42261667,91.07169613
17,684,Bhabanipur,23.3958245,91.09390455
24,1761,Galimpur,23.323076,91.05597964
27,18,Adda,23.3353424,90.98068234
28,24,Adra,23.32123882,91.00310979
32,990,Chandla,23.66486197,91.09546411
33,4383,Shashidal,23.64562905,91.13784303
34,1603,Dulalpur,23.61502499,91.07464917
37,3068,Malapara,23.57360651,91.07515187
38,2974,Madhabpur,23.70233241,91.0779726
50,559,Barera,23.46588215,90.96665918
52,4551,Sreepur,23.29760332,91.23784402
53,2605,Kashinagar,23.33350001,91.22330302
54,2474,Kalikapur,23.3102753,91.28491257
58,611,Batisha,23.19486876,91.30778397
59,2550,Kankapait,23.18162238,91.27821403
60,1168,Cheora,23.14885291,91.29552753
63,90,Alkara,23.0777175,91.334017
73,1884,Goalmari,23.49437433,90.73000572
74,3128,Maruka,23.45490422,90.79083781
79,3140,Mathabanga,23.64747517,90.7747579
81,183,Asadpur,23.69842563,90.83199305
85,1798,Garmora,23.65318014,90.80375579
86,2338,Joypur,23.63524754,90.82471275
87,1602,Dulalpur,23.69678296,90.81295354
90,2544,Kandirpar,23.24690484,91.09018143
91,1889,Gobindapur,23.20176941,91.09848762
96,60,Akubpur,23.75933368,90.99153587
102,1025,Chapitala,23.69465177,90.97270652
104,2268,Jatrapur,23.65981519,90.94046856
111,2209,Jahapur,23.62356723,90.88831269
114,3581,Paharpur,23.55753246,90.89158969
115,245,Babutipara,23.53007666,90.88987775
116,4663,Tanki,23.67651981,90.95589434
120,3257,Mokara,23.14801809,91.22467586
123,25,Adra,23.14127082,91.14796323
125,1463,Dhalua,23.11539187,91.25182559
128,4299,Satbaria,23.07519173,91.27430668
133,3648,Panchthubi,23.48719334,91.21669423
135,968,Chandanpur,23.65425735,90.68754987
139,543,Barakanda,23.6139274,90.67746379
141,2954,Luterchar,23.57971037,90.67375725
143,336,Baishgaon,23.14196328,91.03471801
145,2076,Hasnabad,23.12770405,91.00730377
152,3443,Natherpetua,23.0993397,91.12499506
167,814,Bijoypur,23.4194402,91.14361533
168,4296,Satani,23.62144469,90.75218471
169,2200,Jagatpur,23.60036866,90.75273788
171,2582,Karikandi,23.58514315,90.79851721
172,2426,Kalakandi,23.61036688,90.8414538
174,3409,Narayandia,23.56928894,90.82654267
176,3062,Majidpur,23.57540755,90.75743345
179,3254,Mokam,23.49048583,91.05865422
182,3828,Pirjatrapur,23.55079036,91.1019246
184,3960,Rajapur,23.58766169,91.14884359
193,3234,Mohamaya,23.08306515,91.50189552
194,3736,Pathannagar,23.04063017,91.46227817
195,4573,Subhapur,22.9715545,91.54214641
196,3925,Radhanagar,23.00763464,91.51510068
197,1925,Gopal,22.93717825,91.5165006
198,4287,Sarishadi,23.0494467,91.34307758
201,2647,Kazirbag,23.03250583,91.42283033
202,2463,Kalidah,22.98580282,91.42293993
203,390,Baligaon,22.97435649,91.38056593
205,2939,Lemua,22.94661451,91.44301812
208,1707,Fazilpur,22.96612893,91.48845468
216,4510,Sonagazi,22.84730492,91.42886044
217,119,Amirabad,22.88284248,91.44190843
219,1726,Fulgazi,23.14999462,91.42241682
220,3311,Munshirhat,23.11306501,91.4127669
228,4476,Sindurpur,23.03295347,91.28625631
229,3961,Rajapur,22.99308322,91.27657321
230,3877,Purbachandrapur,22.96435479,91.28541271
231,4012,Ramnagar,22.9448712,91.2775786
233,1251,Daganbhuiyan,22.91784268,91.31114182
236,600,Basudeb,23.88096971,91.18848035
238,4598,Sultanpur,23.88694768,91.11490701
239,4027,Ramrail,23.92718189,91.10075064
240,4152,Sadekpur,23.96541623,91.04262421
246,3064,Majlishpur,24.02709851,91.14568949
248,3178,Mehari,23.77337423,91.07346759
249,248,Badair,23.80153337,91.10826084
252,1941,Gopinathpur,23.76870307,91.20019445
254,2861,Kuti,23.72549691,91.10129215
256,627,Bayek,23.67403955,91.17177488
257,1146,Chatalpar,24.19364168,91.06147409
259,2827,Kunda,24.15859354,91.14561875
260,1885,Goalnagar,24.23251413,91.14110382
261,3438,Nasirnagar,24.19232084,91.18538738
262,922,Burishwar,24.20870884,91.21610551
263,1673,Fandauk,24.21350171,91.25682764
265,1023,Chapartala,24.19076324,91.28587858
267,2057,Haripur,24.11302272,91.25722391
269,1909,Gokarna,24.12996354,91.19085951
272,1239,Chunta,24.11775548,91.07711259
275,4265,Sarail,24.06334033,91.10870139
278,4347,Shahbazpur,24.04537971,91.18015588
280,1056,Charchartala,24.00447581,90.97783688
281,1624,Durgapur,24.05321937,91.04171475
285,2902,Lalpur,23.98217045,90.98262737
286,4685,Tarua,23.99292175,91.02981661
288,1506,Dharkhar,23.83271584,91.14748432
289,3230,Mogra,23.83555219,91.20994359
292,539,Barail,23.94183584,91.01162329
293,839,Birgaon,23.94622921,90.96707633
294,2790,Krishnanagar,23.91516353,90.97030654
300,4409,Shibpur,23.86620854,91.01950954
301,4559,Sreerampur,23.85987564,90.94739983
303,2931,Laurfatehpur,23.80858171,91.01730145
304,2133,Ibrahimpur,23.8365299,90.98291716
305,4311,Satmura,23.79557483,90.95200151
307,4066,Rasullabad,23.825968,90.93269495
308,566,Barikandi,23.85892909,90.86411912
309,4226,Salimganj,23.82443362,90.8795668
310,4079,Ratanpur,23.7857511,90.90730903
316,4526,Sonarampur,23.82207827,90.77496449
323,4224,Salimabad,23.74947187,90.83038499
327,1016,Chandura,24.03477055,91.22257259
329,952,Champaknagar,23.98037574,91.21043521
330,2038,Harashpur,24.02928852,91.28045968
331,3750,Pattan,23.96008519,91.17699273
335,3580,Paharpur,23.9824544,91.26369333
336,2301,Jibtali,22.53460629,92.26129945
339,435,Bandukbhanga,22.74768193,92.17050761
340,409,Balukhali,22.61565464,92.27136366
342,3944,Raikhali,22.4170919,92.16853436
343,2569,Kaptai,22.48695896,92.22400595
344,4859,Wagga,22.55027657,92.12008681
345,1010,Chandraghona,22.50667048,92.13606974
351,4207,Sajek,23.44713779,92.22448075
352,141,Amtali,23.10559856,92.18838126
360,571,Barkal,22.79181533,92.30966786
368,1968,Gulshakhali,22.99796317,92.28076561
373,442,Bangalhalia,22.37516582,92.14993106
376,1686,Farua,22.38336082,92.48011955
380,1609,Dumdumya,22.65571217,92.50159256
382,3393,Naniarchar,22.83722653,92.10410018
383,915,Burighat,22.80678341,92.05836895
384,1856,Ghilachhari,22.75284282,92.03306177
385,1103,Charmatua,22.85897421,90.97780604
386,1248,Dadpur,22.8568582,91.01878854
388,2379,Kadirhanif,22.87186334,91.08420431
389,826,Binodpur,22.83716299,91.08100208
390,1514,Dharmapur,22.73325946,91.07136557
393,194,Ashwadia,22.82709569,91.13082361
397,3521,Noakhali,22.75775149,91.12437056
398,4494,Sirajpur,22.86885332,91.25066353
400,1072,Charhazari,22.86552588,91.31567504
401,1083,Charkakra,22.84133188,91.27166318
402,1064,Charfakira,22.75678121,91.28030562
403,3321,Musapur,22.78015678,91.32094061
404,1063,Charelahi,22.68263966,91.22825338
405,4023,Rampur,22.80743809,91.28977909
406,102,Amanullapur,22.961812,91.01539832
407,1929,Gopalpur,22.96750513,91.05587858
408,2307,Jirtali,22.93012901,91.05540452
409,2863,Kutubpur,22.96970768,91.17473958
412,3970,Rajganj,22.89649666,91.05100892
413,1649,Eklashpur,22.90398765,91.1034884
414,636,Begumganj,22.93603944,91.07714932
415,3190,Mirwarishpur,22.96536851,91.08735587
416,3427,Narottampur,22.96927203,91.11723687
417,1627,Durgapur,22.96042365,91.14773954
418,4068,Rasulpur,22.93369717,91.18842641
419,2007,Hajipur,22.93030316,91.13983889
420,4378,Sharifpur,22.89876126,91.14257449
421,2382,Kadirpur,22.90537824,91.17834379
422,4587,Sukhchar,22.38771702,91.08265743
424,1073,Charishwar,22.32289507,91.1587639
425,1089,Charking,22.38953586,91.01861105
428,920,Burirchar,22.22627224,91.14589863
429,2203,Jahajmara,22.13629804,91.07630606
431,1076,Charjabbar,22.6968604,91.0672779
432,1045,Charbata,22.60695996,91.13181309
433,1057,Charclerk,22.61948286,91.21910473
434,1129,Charwapda,22.63603301,91.03205217
436,1034,Charaman Ullah,22.64658822,91.15224532
438,3238,Mohammadpur,22.54870189,91.19360348
439,3428,Narottampur,22.86013123,91.17952119
441,4603,Sundalpur,22.82061544,91.16476409
443,1028,Chaprashirhat,22.76967394,91.23108344
444,1477,Dhanshalik,22.82605447,91.22926571
446,1182,Chhatarpaia,23.05786433,91.15041022
447,2670,Kesharpar,23.0395887,91.18186481
449,2386,Kadra,23.00931818,91.25009506
450,178,Arjuntala,23.00852571,91.20289531
451,2355,Kabilpur,22.96186179,91.20889311
452,3237,Mohammadpur,22.94354573,91.24961368
453,3337,Nabipur,22.89839433,91.21767516
455,4181,Sahapur,23.03104923,90.91393272
456,4016,Ramnarayanpur,23.00675176,90.94343088
459,3642,Panchgaon,23.05754979,90.99478257
462,2737,Khilpara,22.99982449,90.97981796
463,3236,Mohammadpur,23.09537613,91.00322888
466,1145,Chashirhat,23.06809278,91.11460035
469,3441,Nateshwar,22.99200613,91.12969607
471,4523,Sonapur,23.0098576,91.06385355
472,1427,Deoti,23.03050844,91.0249645
473,123,Amishapara,22.99497626,91.02292698
474,1823,Gazipur,23.12119356,90.64389636
477,3497,Nilkamal,23.08209577,90.59707476
478,1999,Haimchar,23.05673001,90.60572075
479,1049,Charbhairabi,23.03740701,90.65412122
480,3733,Pathair,23.43554609,90.81449744
481,858,Bitara,23.41592732,90.84559855
487,2385,Kadla,23.340601,90.85078983
488,188,Ashrafpur,23.27733078,90.98013783
490,4143,Sachar,23.44761304,90.84722044
503,187,Ashikati,23.27293054,90.70916799
504,4343,Shahmahmudpur,23.25186406,90.73769286
505,2496,Kalyanpur,23.27365395,90.68019698
506,4022,Rampur,23.24041027,90.76543575
507,3051,Maishadi,23.24325177,90.70108718
508,4684,Tarpurchandi,23.24338935,90.67249778
509,279,Baghadi,23.21900885,90.71491918
511,2031,Hanarchar,23.158751,90.64668736
512,1005,Chandra,23.14486382,90.6663401
513,3982,Rajrajeshwar,23.2833042,90.60159576
514,2134,Ibrahimpur,23.21576988,90.64951986
515,375,Balia,23.16674571,90.68428777
518,2672,Khadergaon,23.3643936,90.75068777
519,3412,Narayanpur,23.35228773,90.78838693
523,347,Bakila,23.27117376,90.77999938
533,4312,Satnal,23.46823944,90.59678245
535,4162,Sadullapur,23.4787785,90.64418839
536,1625,Durgapur,23.43341709,90.67941258
537,2437,Kalakanda,23.4158127,90.60107841
538,3248,Mohanpur,23.41311175,90.56432779
539,1650,Eklaspur,23.37990523,90.55962285
540,2212,Jahirabad,23.36696859,90.62309794
543,1675,Farajikandi,23.35626291,90.64850294
544,2161,Islamabad,23.41115307,90.71899291
545,4595,Sultanabad,23.38738633,90.72855562
564,1321,Dalalbazar,22.97692905,90.78251498
565,1121,Charruhita,22.94163905,90.77497506
567,439,Bangakha,22.95271778,90.86991976
568,1373,Dattapara,22.97079862,90.91534912
569,596,Basikpur,23.0034629,90.89074336
575,2873,Laharkandi,22.91791541,90.86084194
582,1085,Charkalkini,22.78252504,90.79617238
584,1102,Char Martin,22.77859267,90.83456862
586,3729,Patarirhat,22.72530667,90.86305637
587,2014,Hajirhat,22.73620396,90.88612349
588,1081,Char Kadira,22.75146054,90.94130909
591,3539,North Char Ababil,23.03058207,90.67806881
592,3540,North Char Bangshi,22.96694185,90.69107372
593,1104,Char Mohana,23.00167331,90.73620087
594,4522,Sonapur,23.00146263,90.76564483
595,1114,Charpata,23.06270791,90.76808841
596,417,Bamni,23.01488144,90.7976745
598,4535,South Char Ababil,23.0303563,90.70152661
601,1116,Char Poragacha,22.68845001,91.00379982
603,1029,Char Abdullah,22.52978899,90.93621083
605,1031,Char Algi,22.67451103,90.93931472
606,1120,Char Ramiz,22.63100553,90.97439042
608,1067,Chargazi,22.59343039,91.00746897
609,2532,Kanchanpur,23.14768177,90.85833777
610,3516,Noagaon,23.1451496,90.88991549
611,700,Bhadur,23.10440085,90.88637183
612,2137,Ichhapur,23.11152032,90.81842443
613,984,Chandipur,23.07787085,90.81875697
614,2913,Lamchar,23.0414902,90.8543315
615,1355,Darbeshpur,23.07086961,90.86713555
616,2588,Karpara,23.03897933,90.88481356
617,789,Bholakot,23.1036347,90.91406185
618,756,Bhatra,23.12687005,90.93567532
619,3955,Rajanagar,22.57081366,92.02854708
620,2122,Hosnabad,22.50381248,92.10418326
623,3685,Parua,22.49180002,92.03817788
625,669,Betagi,22.43042756,91.99518232
629,2771,Kodala,22.42864263,92.10631152
630,2164,Islampur,22.57753112,92.07081595
631,4537,South Rajanagar,22.54036244,92.06674065
632,2904,Lalanagar,22.51689647,92.07042892
633,2824,Kumira,22.51876729,91.72185601
634,462,Banshbaria,22.55130278,91.69767921
635,517,Barabkunda,22.5740028,91.6733496
636,564,Bariadyala,22.66835401,91.63623087
637,3315,Muradpur,22.59967549,91.63555116
638,4198,Saidpur,22.64729061,91.59501057
639,4227,Salimpur,22.39197923,91.76490858
640,4514,Sonaichhari,22.46976673,91.74510688
641,754,Bhatiari,22.42400573,91.76985475
643,2108,Hinguli,22.89964124,91.52627248
646,3559,Osmanpur,22.85464836,91.48380262
648,2617,Katachhara,22.81535923,91.50742224
649,1626,Durgapur,22.82523043,91.53885276
650,3198,Mirsharai,22.7788717,91.58151084
651,3219,Mithanala,22.78055635,91.5235814
652,2993,Maghadia,22.76647323,91.54471163
653,2682,Khaiyachhara,22.74788769,91.58275286
654,3168,Mayani,22.72960731,91.54846762
655,2001,Haitkandi,22.69955496,91.5854542
656,4860,Wahedpur,22.71095199,91.60912688
657,4193,Saherkhali,22.70803329,91.52848716
658,195,Asia,22.26184678,91.94373285
659,2371,Kachuai,22.26910563,92.05016129
660,2613,Kasiais,22.26495758,91.91543865
661,2859,Kusumpura,22.3042829,91.90555019
662,2654,Kelishahar,22.33306457,92.01320717
663,2780,Kolagaon,22.32345547,91.88702202
664,2710,Kharana,22.25016574,92.0034871
665,1115,Char Patharghata,22.31251304,91.83519838
666,1093,Char Lakshya,22.29388737,91.83743943
667,1019,Chanhara,22.25990502,91.97117642
668,2258,Janglukhain,22.30922083,91.94559237
669,2306,Jiri,22.28061115,91.8910783
670,2347,Juldha,22.2845666,91.81488133
672,1454,Dhalghat,22.33966891,91.96109626
673,509,Bara Uthan,22.26272719,91.85929823
674,549,Baralia,22.29036432,91.93660541
675,755,Bhatikhain,22.28030165,91.96899979
676,4461,Sikalbaha,22.29662586,91.85757858
677,4501,Sobhandandi,22.23646018,91.98581125
679,1997,Haidgaon,22.30810988,92.04999032
680,3941,Rahmatpur,22.48763703,91.44400984
681,2067,Harispur,22.52477302,91.42348565
682,2444,Kalapania,22.54254359,91.43932564
683,101,Amanullah,22.55862027,91.45221033
684,4251,Santoshpur,22.57549958,91.46873083
685,1741,Gachhua,22.55212332,91.4787001
686,621,Bauria,22.53028443,91.48004668
687,2037,Haramia,22.50883553,91.49097408
688,2992,Magdhara,22.44933613,91.53271216
689,3052,Maitbhanga,22.44502811,91.48480071
690,4280,Sarikait,22.42168005,91.48948356
691,3320,Musapur,22.47190335,91.47865945
692,238,Azimpur,22.39264272,91.38590897
693,4793,Urirchar,22.67276784,91.36824572
694,3860,Pukuria,22.14450316,91.93133965
695,4153,Sadhanpur,22.11293585,91.93718596
696,2703,Khankhanabad,22.10681987,91.87825978
697,311,Baharchhara,22.07064072,91.89400451
698,2481,Kalipur,22.07412604,91.94001273
699,325,Bailchhari,22.04523179,91.95460509
700,2621,Katharia,22.0425935,91.90936101
701,4266,Saral,22.01868066,91.90098092
703,951,Chambal,21.96145125,91.97850306
704,1769,Gandamara,21.9690506,91.90457329
705,4329,Sekherkhil,21.9319771,91.94260198
706,3857,Puichhari,21.91834067,91.98836879
707,1174,Chhanua,21.90455722,91.92189755
708,2540,Kandhurkhil,22.39713779,91.92286749
710,3887,Purba Gomdandi,22.37746323,91.92082369
711,4214,Sakpura,22.3507399,91.91119654
712,4290,Saroatali,22.36213496,91.94956093
713,3842,Popadia,22.38988133,91.94676666
719,554,Barasat,22.20047579,91.83290912
721,614,Battali,22.19126805,91.85543767
725,1147,Chatari,22.23866394,91.88879381
726,3668,Paraikora,22.2387509,91.93585938
727,1998,Haildhar,22.20451822,91.93646494
728,2346,Juidandi,22.14112415,91.87293772
729,2531,Kanchanabad,22.23426588,92.07655185
730,2310,Joara,22.22237163,92.00886992
731,570,Barkal,22.20784737,91.97179502
732,550,Barama,22.18026028,91.9858323
733,326,Bailtali,22.15407288,92.00559595
734,4298,Satbaria,22.17955409,92.02556797
735,2075,Hashimpur,22.1953868,92.06378071
736,1586,Dohazari,22.17252135,92.0862536
737,1522,Dhopachhari,22.24380962,92.12235403
738,1134,Charati,22.14863584,91.96981098
739,2677,Khagaria,22.15108051,92.0405609
740,3379,Nalua,22.12533066,92.03451029
741,2530,Kanchana,22.10710448,92.00528478
744,2969,Madarsa,22.06147632,92.00849552
745,1517,Dhemsa,22.10548938,92.05938143
746,3699,Paschim Dhemsa,22.09966389,92.04062911
747,2658,Keochia,22.11792129,92.08431581
748,2459,Kaliais,22.14748116,92.07575631
749,630,Bazalia,22.11944902,92.14251148
750,3868,Puranagar,22.15534649,92.127751
751,4147,Sadaha,22.08642139,92.11791257
752,4304,Satkania,22.05243149,92.08534693
753,4516,Sonakania,22.04314574,92.03417372
754,3572,Padua,22.05326123,92.13397773
755,530,Barahatia,22.00503123,92.03831211
756,118,Amirabad,22.03533374,92.10003509
757,1132,Charamba,22.01311874,92.16811743
758,2453,Kalauzan,21.9849255,92.14627852
759,2944,Lohagara,21.99982376,92.10105248
760,3915,Putibila,21.95925186,92.15764429
761,1237,Chunati,21.94220019,92.09294963
762,22,Adhunagar,21.95543149,92.03801255
764,1451,Dhalai,22.59291508,91.79634548
769,3182,Mekhal,22.50183759,91.8362189
770,1790,Garduara,22.4947231,91.86326282
777,2082,Hathazari,22.50907556,91.79589123
778,1511,Dharmapur,22.60709792,91.87531679
779,267,Baganbazar,22.94825994,91.70162814
780,1342,Dantmara,22.86199556,91.70310773
781,3411,Narayanhat,22.79226068,91.70370253
782,796,Bhujpur,22.76867773,91.74030727
787,4564,Suabil,22.6500648,91.73269541
788,3,Abdullapur,22.57037782,91.86905321
789,4236,Samitirhat,22.59400486,91.83315576
793,3396,Nanupur,22.63812264,91.86071879
794,2937,Lelang,22.67698236,91.85222588
795,1385,Daulatpur,22.64304562,91.80259383
796,4056,Raozan,22.52979329,91.94976645
797,294,Bagoan,22.43869246,91.93262829
798,821,Binajuri,22.51033974,91.89842021
799,1203,Chikdair,22.54372849,91.88002177
800,1246,Dabua,22.56683426,91.91735946
806,3513,Noapara,22.43267607,91.90596364
807,3582,Pahartali,22.45671878,91.96233855
808,4794,Urkirchar,22.44074987,91.87639026
815,2162,Islamabad,21.57074655,92.0651763
816,2165,Islampur,21.59197349,92.04867524
817,3839,Pokkhali,21.57120963,92.01634744
819,2220,Jalalabad,21.55004023,92.04070507
825,2420,Kakhara,21.77549836,92.10680791
826,2393,Kaiar Bil,21.79554291,92.05268144
827,2783,Konakhali,21.78548987,91.97545833
828,2756,Khuntakhali,21.62219425,92.07511719
829,1217,Chiringa,21.6968895,92.03862419
830,1417,Demusia,21.76233609,91.96769021
831,1600,Dulahazara,21.68623101,92.08381943
832,3693,Paschim Bara Bheola,21.74684248,91.9952406
833,255,Badarkhali,21.7199327,91.96366181
834,418,Bamobil Chari,21.81148047,92.19007584
835,541,Baraitali,21.82079905,92.05204722
836,770,Bheola Manik Char,21.78577865,92.01109316
837,4184,Saharbil,21.70484896,92.00684993
838,4614,Surajpur Manikpur,21.75396419,92.13927081
839,2040,Harbang,21.87546092,92.03825171
841,73,Ali Akbar Deil,21.76240448,91.84550311
842,4815,Uttar Dhurung,21.90006644,91.8717334
843,2411,Kaiyarbil,21.84404289,91.8557741
846,2938,Lemsikhali,21.86526694,91.88652822
847,3947,Rajapalong,21.24823015,92.14599761
848,2228,Jaliapalong,21.10277291,92.11422209
850,4081,Ratnapalong,21.2822849,92.14563815
851,3624,Palongkhali,21.20307352,92.08770826
856,2112,Hoanak,21.52986574,91.87467298
857,2446,Kalarmarchhara,21.68121818,91.91302769
858,3138,Matarbari,21.72831703,91.89429564
859,1455,Dhalghata,21.68348556,91.86521694
860,4777,Ujantia,21.76075353,91.925796
861,4640,Taitong,21.8731029,91.97808471
862,3808,Pekua,21.81500461,91.97311402
863,479,Barabakia,21.8404633,91.99446568
864,2998,Magnama,21.80866947,91.92016621
865,3953,Rajakhali,21.85845938,91.93801189
866,4421,Shilkhali,21.83158243,92.01254513
868,3966,Rajarkul,21.40200435,92.10267028
869,4061,Rashidnagar,21.50745955,92.07851255
870,2755,Khuniapalong,21.34166283,92.07597489
872,936,Chakmarkul,21.42254449,92.08458129
881,5148,Whykong,21.09921129,92.16758349
885,1912,Golabari,23.10069786,92.03345987
888,3186,Merung,23.1344612,92.10245648
889,870,Boalkhali,23.22745079,92.03391727
890,2354,Kabakhali,23.22790573,92.10206309
891,1564,Dighinala,23.28790867,92.07869171
893,2943,Logang,23.33685817,91.85932534
896,2924,Latiban,23.24355624,91.93366866
906,612,Batnatali,22.87475684,91.80322414
908,4735,Tintahari,22.80857627,91.85719582
909,3997,Ramgarh,22.98711963,91.75651659
917,3154,Matiranga,23.06159686,91.85854593
919,140,Amtali,23.11282032,91.89054782
920,3968,Rajbila,22.30488133,92.22585084
924,2801,Kuhalong,22.25918515,92.18264754
929,335,Baishari,21.5990063,92.22701993
936,1752,Gajalia,21.85895259,92.20835123
941,4263,Sarai,21.93162724,92.22019474
942,240,Aziznagar,21.90488247,92.10237735
950,397,Balipara,21.87277691,92.38571145
951,3964,Rajapur,24.34601939,89.71869609
952,488,Baradhul,24.28636295,89.75045893
956,719,Bhangabari,24.30660899,89.67251424
958,1847,Gharjan,24.14339229,89.75815384
959,2717,Khaskaulia,24.12266252,89.79144116
960,2718,Khaspukuria,24.09194485,89.78303533
961,3555,Omarpur,24.05252184,89.73168442
962,4157,Sadia Chandpur,24.24220458,89.74817656
963,4563,Sthal,24.19218033,89.75445772
964,697,Bhadraghat,24.40965082,89.61131621
965,2251,Jamtail,24.3662469,89.65396988
966,2288,Jhawail,24.39875971,89.65808966
967,4102,Roydaulatpur,24.33307531,89.65121395
969,1068,Chargirish,24.70207348,89.7592473
970,1768,Gandail,24.61713616,89.62904978
972,2719,Khasrajbari,24.73973135,89.69241737
973,3044,Maijbari,24.69462884,89.64586519
975,3448,Natuarpara,24.68505913,89.69412199
976,3504,Nishchintapur,24.64402277,89.75892915
977,4520,Sonamukhi,24.6731657,89.57566631
979,4690,Tekani,24.60602148,89.73453767
981,960,Chandaikona,24.52682163,89.49911988
982,1464,Dhamainagar,24.52783799,89.43618384
984,1529,Dhubil,24.44269417,89.47374434
985,1874,Ghurka,24.46512939,89.51350691
986,3373,Nalka,24.44614124,89.56682377
987,3655,Pangashi,24.47571069,89.58982998
988,4518,Sonakhara,24.48211516,89.46836314
989,657,Beltail,24.20627047,89.63730008
990,2225,Jalalpur,24.19005056,89.70699602
995,1757,Gala,24.09479206,89.66936275
998,2752,Khukni,24.21729216,89.6811322
1003,4078,Ratankandi,24.57463533,89.63064334
1012,586,Baruhas,24.46830474,89.32600977
1013,4644,Talam,24.52405428,89.35043631
1015,3005,Magura Binod,24.38061703,89.34654409
1016,3400,Naogaon,24.36842196,89.39687682
1018,2977,Madhainagar,24.44939592,89.40334886
1019,1430,Deshigram,24.49933289,89.39815204
1022,441,Bangala,24.35170286,89.45951118
1023,4772,Udhunia,24.30427567,89.43708822
1025,1621,Durga Nagar,24.26828074,89.54926741
1027,4219,Salanga,24.38952726,89.50353034
1028,2089,Hatikumrul,24.40585151,89.55223396
1035,3098,Manikhat,23.89504683,89.49070903
1036,1601,Dulai,23.94011655,89.49715638
1038,4054,Raninagar,23.90320569,89.56302223
1039,4300,Satbaria,23.88491639,89.44339749
1040,2093,Hatkhali,23.87372148,89.53443821
1041,3463,Nazirganj,23.8403713,89.51722321
1043,4262,Sara,24.1332661,89.02680732
1044,3604,Pakshi,24.08056717,89.04860238
1045,3296,Muladuli,24.14180695,89.12407839
1046,1371,Dashuria,24.10339542,89.1585666
1047,4466,Silimpur,24.08482557,89.1058685
1048,4183,Sahapur,24.03518036,89.12341538
1050,725,Bhangura,24.22312331,89.41283391
1051,2698,Khanmarich,24.29752184,89.40108852
1052,189,Ashtamanisha,24.24954706,89.3652198
1053,1571,Dilpasar,24.24376381,89.43385144
1055,3071,Maligachha,24.0534431,89.21367831
1056,3067,Malanchi,24.05176024,89.25787139
1057,1814,Gayeshpur,24.0319878,89.30541204
1059,1127,Chartarapur,23.94523016,89.37409709
1060,4161,Sadullahpur,23.99329731,89.37714485
1061,735,Bharara,23.935041,89.31502808
1063,2104,Hemayetpur,24.00640626,89.18501807
1064,1349,Dapunia,24.05286261,89.16532881
1065,2097,Haturia Nakalia,24.04275367,89.67174184
1068,934,Chakla,24.01394174,89.62566889
1071,4135,Ruppur,23.89471236,89.67361344
1073,1452,Dhalar Char,23.83614945,89.67700669
1074,3055,Majhpara,24.15581664,89.18858675
1075,971,Chandba,24.13247726,89.24841604
1076,1406,Debottar,24.09748904,89.2652809
1077,1647,Ekdanta,24.08292296,89.33160743
1079,2032,Handial,24.32412891,89.34844888
1081,3498,Nimaichara,24.27902139,89.34912048
1082,1975,Gunaigachha,24.2151595,89.3304265
1083,3683,Parshadanga,24.17488721,89.33875911
1084,1668,Failjana,24.13298818,89.29915068
1085,3300,Mulgram,24.17125485,89.28597615
1086,2058,Haripur,24.25488323,89.25837938
1087,3279,Mothurapur,24.21285287,89.28070433
1088,818,Bilchalan,24.24422222,89.29215486
1089,1341,Danthia Bamangram,24.18665384,89.23177964
1090,3353,Nagdemra,24.10277442,89.55552612
1091,1532,Dhulauri,24.10854896,89.47674455
1092,798,Bhulbaria,24.06687655,89.4456133
1093,1523,Dhopadaha,24.08556472,89.51912816
1095,2606,Kashinathpur,23.97927774,89.58546342
1096,1806,Gaurigram,24.01570815,89.53406213
1097,3384,Nandanpur,24.04354863,89.49282098
1101,3865,Pungali,24.17902538,89.49988598
1102,1682,Faridpur,24.15422416,89.42002137
1103,1993,Hadal,24.12278895,89.40603968
1104,474,Banwarinagar,24.16185104,89.46729303
1105,1415,Demra,24.14620729,89.48062551
1106,834,Birkedar,24.86468501,89.20569206
1108,3585,Paikar,24.90696638,89.28020304
1111,2391,Kahaloo,24.81165302,89.25186487
1112,1633,Durgapur,24.81103495,89.20089745
1113,2244,Jamgaon,24.75601784,89.24408898
1114,3066,Malancha,24.78241141,89.27511386
1115,1674,Fapore,24.83643159,89.33546128
1116,4341,Shabgram,24.84820656,89.40542698
1117,3505,Nishindara,24.87479863,89.35918784
1118,1665,Erulia,24.8776924,89.3253883
1119,3963,Rajapur,24.88084499,89.39407896
1120,4359,Shakharia,24.90086753,89.38357039
1121,4330,Sekherkola,24.92151656,89.3765915
1122,1910,Gokul,24.93147247,89.33864378
1123,3537,Noongola,24.91310786,89.31970425
1124,2874,Lahiripara,24.95015538,89.38231695
1125,3380,Namuja,24.94949921,89.30171247
1127,3418,Narchi,24.91186153,89.54483948
1128,876,Bohail,24.78065285,89.64706789
1129,947,Chaluabari,25.00330405,89.62305816
1130,961,Chandanbaisha,24.80103068,89.62483853
1132,2079,Hatsherpur,24.94627302,89.5797674
1133,2587,Karnibari,24.85191328,89.63440607
1134,2649,Kazla,24.92534829,89.6378896
1135,2868,Kutubpur,24.82744192,89.58243044
1136,2503,Kamalpur,24.77309125,89.59868243
1137,765,Bhelabari,24.80700021,89.54719076
1138,184,Asekpur,24.79824972,89.34326258
1139,2989,Madla,24.81581074,89.41858631
1140,3060,Majhira,24.77229401,89.38356933
1141,174,Aria,24.72902178,89.38137003
1142,2712,Kharna,24.74887925,89.33752607
1143,2750,Khottapara,24.78628029,89.42608451
1144,1227,Chopinagar,24.76103977,89.42848176
1146,1904,Gohail,24.71680433,89.30661058
1147,5156,Zianagar,24.93777844,89.10728154
1148,955,Chamrul,24.92447114,89.16681788
1150,1973,Gunahar,24.89305975,89.11848198
1151,1893,Gobindapur,24.8421573,89.11384041
1152,4653,Talora,24.82738347,89.15963797
1153,1185,Chhatiangram,24.83992095,88.99670403
1155,14,Adamdighi,24.80609917,89.0419111
1156,2829,Kundagram,24.79111191,89.11978341
1158,4373,Shantahar,24.77806292,88.99735382
1159,911,Burail,24.6482367,89.30636535
1160,3385,Nandigram,24.62666528,89.22130306
1161,757,Bhatra,24.67602912,89.1795069
1162,4718,Thalta Majhgram,24.74878543,89.17771672
1163,751,Bhatgram,24.70467922,89.2421739
1164,4532,Sonatala,25.01926897,89.51070706
1165,404,Balua,25.02527527,89.46909939
1167,1554,Digdair,24.97425869,89.47137811
1168,2982,Madhupur,25.02127514,89.54238883
1169,3606,Pakulla,24.97851631,89.55123398
1172,2454,Kalerpara,24.72684684,89.52489518
1173,1202,Chikashi,24.75404197,89.56380109
1175,714,Bhandarbari,24.71949224,89.62802642
1176,1928,Gopalnagar,24.58302327,89.58926441
1179,1653,Elangi,24.69773453,89.50035079
1181,379,Baliadighi,24.80127727,89.51041124
1183,1620,Durgahata,24.8442414,89.5112471
1184,2389,Kagail,24.98285072,89.39696943
1185,4525,Sonarai,24.9508771,89.4482056
1186,3994,Rameshwarpur,24.9236546,89.42687071
1187,3432,Naruamala,24.89285755,89.46513435
1188,3472,Nepaltali,24.90369508,89.49881948
1189,1736,Gabtali,24.86694458,89.42905132
1190,3030,Mahishaban,24.82632089,89.4689784
1191,3435,Nasipur,24.78113374,89.47275515
1192,3210,Mirzapur,24.61099913,89.42099088
1193,2697,Khamarkandi,24.69827496,89.45931894
1194,1794,Garidaha,24.69486941,89.41583014
1195,2858,Kusumbi,24.66669321,89.3625242
1196,847,Bishalpur,24.59243134,89.36730569
1197,4423,Shimabari,24.56883317,89.4987827
1199,4578,Sughat,24.60905666,89.48296438
1200,2707,Khanpur,24.65415274,89.46715458
1201,686,Bhabanipur,24.57450529,89.43888719
1204,218,Atmul,25.01503971,89.25313233
1206,3059,Majhihatta,24.93451831,89.22625408
1207,914,Buriganj,24.97323511,89.2545946
1208,811,Bihar,24.98888353,89.29444413
1209,4404,Shibganj,25.04602822,89.32370434
1212,3256,Mokamtala,25.01509784,89.37987427
1215,2130,Hujuripara,24.4486481,88.55643895
1219,2043,Harian,24.33530362,88.61679724
1221,3680,Parila,24.4263825,88.6886178
1225,1412,Deluabari,24.46942632,88.72893626
1226,2281,Jhaluka,24.42029704,88.72720248
1227,3120,Maria,24.42315005,88.78575626
1230,1849,Ghasigram,24.59110745,88.61283592
1234,2204,Jahanabad,24.55108571,88.68699039
1237,4275,Sardah,24.30090164,88.7773142
1238,3500,Nimpara,24.31506452,88.82695231
1239,1135,Charghat,24.25292891,88.77001651
1241,3912,Puthia,24.36509675,88.81108876
1242,656,Belpukuria,24.36710781,88.72000332
1247,343,Bajubagha,24.20691993,88.85743126
1249,3610,Pakuria,24.17621589,88.78942216
1251,622,Bausa,24.25207537,88.87073736
1252,169,Arani,24.28167969,88.88587204
1253,1898,Godagari,24.48404069,88.37636445
1255,3603,Pakri,24.5159669,88.42470523
1257,1903,Gogram,24.44383839,88.439989
1258,3152,Matikata,24.43357082,88.38808039
1260,601,Basudebpur,24.51165876,88.3301796
1262,2490,Kalma,24.68112312,88.52967947
1263,259,Badhair,24.63789497,88.48327535
1265,4268,Saranjai,24.5567168,88.54476549
1267,2511,Kamargaon,24.66101434,88.60555269
1268,1017,Chanduria,24.51055893,88.5567688
1273,222,Auchpara,24.60412518,88.70427238
1274,4554,Sreepur,24.54603589,88.81514023
1275,598,Basupara,24.58904266,88.77623854
1279,1782,Ganipur,24.54354235,88.74706978
1283,2315,Jogipara,24.57615325,88.92794933
1284,4508,Sonadanga,24.66859583,88.78817929
1285,895,Brahmapur,24.52769198,88.91820389
1286,2978,Madhnagar,24.52372349,88.97520825
1288,3827,Piprul,24.48155541,89.0072698
1290,1187,Chhatni,24.43336115,88.95481361
1291,4687,Tebaria,24.38729052,88.96117573
1292,1562,Dighapatia,24.43464959,89.03962394
1296,2025,Halsa,24.38904808,89.07074643
1297,4586,Sukash,24.5870225,89.2839066
1298,1255,Dahia,24.49589037,89.27052152
1299,2177,Italy,24.51978525,89.22805068
1300,2440,Kalam,24.44885899,89.17361129
1301,950,Chamari,24.42312991,89.17135313
1302,2085,Hatiandaha,24.43629772,89.09994225
1303,2906,Lalore,24.47891435,89.05759403
1304,4395,Sherkole,24.50206203,89.10137343
1305,4641,Tajpur,24.53537391,89.13797247
1306,1159,Chaugram,24.54905513,89.15856936
1307,1181,Chhatardighi,24.62104409,89.12801232
1308,3986,Ramanandakhajura,24.59377481,89.19199811
1309,2311,Joari,24.30911516,89.06435722
1310,534,Baraigram,24.314865,89.19766168
1314,1934,Gopalpur,24.19136126,89.1305382
1316,3661,Panka,24.2866783,88.9201224
1318,272,Bagatipara,24.33449504,88.9470755
1319,1397,Dayarampur,24.29985918,89.01317474
1321,2907,Lalpur,24.15441048,88.96634859
1324,172,Arbab,24.22350098,88.93778212
1325,820,Bilmaria,24.14429035,88.90717718
1326,1592,Duaria,24.18975988,89.08082749
1328,1618,Durduria,24.19196862,88.88892788
1331,3468,Nazirpur,24.38754605,89.14943532
1332,804,Biaghat,24.41435723,89.23243754
1333,2751,Khubjipur,24.40262064,89.26328661
1334,1502,Dharabarisha,24.34084952,89.23474833
1336,1024,Chapila,24.35041084,89.12831483
1337,4127,Rukindipur,25.00405016,89.02962806
1338,4519,Sonamukhi,24.93144154,89.02233985
1339,4728,Tilakpur,24.88177323,89.02076329
1340,3943,Raikali,24.89819661,89.06692511
1341,1944,Gopinathpur,24.95140087,89.07020851
1342,3158,Matrai,25.13677046,89.1891518
1345,5157,Zindarpur,25.01500597,89.17965372
1347,66,Alampur,24.97256344,89.15297949
1350,3081,Mamudpur,25.00660168,89.07321552
1352,293,Bagjana,25.25241822,89.01923769
1353,1505,Dharanji,25.22875633,88.98052766
1354,233,Aymarasulpur,25.14443382,89.00164403
1355,391,Balighata,25.16480198,89.04995013
1356,204,Atapur,25.22555088,89.05727612
1358,160,Aolai,25.19423698,89.1662926
1359,2856,Kusumba,25.17194978,89.10146134
1360,111,Amdai,25.11547906,89.1172311
1363,3869,Puranapail,25.1291972,89.05683409
1364,2238,Jamalpur,25.05682061,89.03606766
1366,3235,Mohammadabad,25.08030108,89.01028182
1367,1450,Dhalahar,25.17006564,88.96358625
1369,70,Alatuli,24.45807972,88.28319799
1372,4050,Ranihati,24.60421,88.21760403
1375,2294,Jhilim,24.61889704,88.35337407
1376,1035,Char Anupnagar,24.52804588,88.3037505
1377,1404,Debinagar,24.50898266,88.26424073
1378,4352,Shahjahanpur,24.47817228,88.22570431
1379,2168,Islampur,24.54813204,88.25731963
1380,1041,Charbagdanga,24.5096582,88.18506796
1381,3416,Narayanpur,24.55562168,88.13955337
1382,4609,Sundarpur,24.56140103,88.20381792
1383,3927,Radhanagar,24.91408886,88.38297885
1385,868,Boalia,24.82658588,88.26696357
1388,1229,Chowdala,24.78248197,88.25334985
1390,81,Alinagar,24.83993314,88.31025942
1395,786,Bholahat,24.9437751,88.18649488
1396,2242,Jambaria,24.84181309,88.22094193
1397,1907,Gohalbari,24.90216825,88.19726339
1399,828,Binodpur,24.74417693,88.09487267
1400,927,Chakkirti,24.73625541,88.24166349
1401,1258,Daipukuria,24.8175718,88.19749388
1402,1438,Dhainagar,24.6864096,88.2401603
1404,1865,Ghorapakhia,24.60642135,88.17357671
1405,3224,Mobarakpur,24.76165023,88.19191598
1408,3662,Panka,24.61485264,88.10267548
1411,4450,Shyampur,24.73694059,88.14545798
1412,2551,Kansat,24.70377136,88.19406072
1415,2096,Hatur,24.97320657,88.70776623
1416,2684,Khajur,24.92608681,88.70077353
1417,970,Chandas,24.88743913,88.69340324
1418,1662,Enayetpur,24.97500549,88.76418652
1420,4856,Uttargram,24.8752161,88.77507659
1421,1169,Cheragpur,24.90030085,88.838886
1426,3577,Paharpur,25.03193326,88.9851679
1427,3220,Mithapur,24.99190007,88.98565241
1428,2778,Kola,24.95363221,88.97618428
1430,19,Adhaipur,24.95947331,88.9356073
1431,407,Balubhara,24.91973608,88.90632646
1432,3748,Patnitala,25.04526002,88.71592183
1433,3501,Nirmail,25.17035239,88.61327589
1434,1549,Dibar,25.10702466,88.63264451
1435,52,Akbarpur,25.06234459,88.65352939
1437,2796,Krishnapur,25.09568544,88.7175679
1439,3461,Nazipur,25.00975896,88.74656477
1441,99,Amair,25.02675815,88.87228146
1442,4416,Shihara,25.15405986,88.65949347
1443,1469,Dhamoirhat,25.15112773,88.88388062
1444,67,Alampur,25.142662,88.78279319
1446,167,Aranagar,25.09053735,88.84146911
1447,2208,Jahanpur,25.11033558,88.90527822
1448,2149,Isabpur,25.06058226,88.90806231
1449,2730,Khelna,25.13564444,88.72776957
1450,37,Agradigun,25.18014107,88.70452111
1451,2005,Hajinagar,24.90295477,88.53906128
1452,962,Chandannagar,24.92033391,88.61714993
1453,688,Bhabicha,24.85507212,88.61837785
1454,3480,Niamatpur,24.84166765,88.55853145
1455,4071,Rasulpur,24.82583401,88.46798036
1458,304,Bahadurpur,24.73831579,88.57906866
1461,3673,Paranpur,24.80778497,88.6550004
1462,3084,Manda,24.78058223,88.68603554
1468,3550,Nurullabad,24.70863624,88.75385531
1469,2478,Kalikapur,24.67773949,88.72354622
1475,42,Ahsanganj,24.6112499,88.94631428
1476,3649,Panchupur,24.58979113,89.00277342
1477,846,Bisha,24.56694987,89.0614793
1479,2477,Kalikapur,24.66423135,88.90534773
1480,2092,Hatkalupara,24.67323338,88.85424821
1482,2604,Kashimpur,24.72735155,88.93859816
1483,1923,Gona,24.71065829,88.95583437
1486,2469,Kaligram,24.71762052,89.05606328
1487,1646,Ekdala,24.68808034,89.11121476
1488,3192,Mirat,24.7108831,88.8864144
1489,582,Barshail,24.86754562,88.87111494
1491,358,Baktiarpur,24.85885517,88.93243815
1492,4729,Tilakpur,24.8644111,88.97086429
1494,1595,Dubalhati,24.79498461,88.8653115
1495,867,Boalia,24.82779668,88.95926957
1497,985,Chandipur,24.76612484,88.95488773
1503,1176,Chhaor,24.95210392,88.47869581
1504,1780,Ganguria,25.04251382,88.51952561
1505,1854,Ghatnagar,24.97500031,88.56412108
1507,4256,Sapahar,25.09901512,88.57294415
1508,4732,Tilna,25.04944667,88.58331885
1509,44,Aihai,25.18029616,88.49842407
1511,1878,Goala,25.09965331,88.49935665
1513,3469,Nehalpur,22.96152355,89.34226271
1514,2051,Hariharnagar,23.01546467,89.10391575
1515,2047,Haridaskati,23.03549046,89.29500846
1516,4446,Shyamkur,22.97055137,89.22148845
1517,4097,Rohita,23.06781106,89.14464675
1518,3136,Maswimnagar,22.94137962,89.13913032
1519,3107,Manoharpur,22.93582085,89.32781308
1520,3100,Manirampur,23.04418987,89.21781279
1521,783,Bhojgati,23.07302224,89.23527471
1522,1617,Durbadanga,22.95841679,89.28673495
1523,1444,Dhakuria,23.07933073,89.28155546
1524,2282,Jhanpa,22.99139809,89.1501978
1525,948,Chaluahati,22.95740192,89.1793228
1526,2729,Khedapara,23.02725568,89.17343638
1527,2706,Khanpur,22.99109098,89.26198373
1528,2817,Kultia,23.00517782,89.3234811
1529,2600,Kashimnagar,23.07269669,89.19648398
1530,291,Baghutia,23.0280104,89.43919438
1531,942,Chalishia,22.99728377,89.37409226
1532,4612,Sundoli,23.04066272,89.3419411
1533,4453,Siddhipasha,22.96120594,89.51658151
1534,4540,Sreedharpur,23.06695485,89.41499304
1536,3851,Prambag,23.08478846,89.3438209
1537,3805,Payra,22.95955785,89.38303935
1538,2211,Jaharpur,23.33217961,89.25696416
1539,2243,Jamdia,23.16772359,89.39175986
1540,1351,Darajhat,23.19968127,89.31351618
1541,1456,Dhalgram,23.25302051,89.39872872
1542,3424,Narikelbaria,23.27278528,89.3453806
1543,429,Bandabilla,23.29960797,89.28350403
1544,599,Basuari,23.16733041,89.34882573
1545,4115,Roypur,23.25413221,89.29747991
1546,1584,Dohakula,23.21799044,89.38430315
1548,2191,Jagadishpur,23.28802776,89.08123093
1549,1534,Dhuliani,23.21654904,89.01672206
1550,3415,Narayanpur,23.31512439,88.99186567
1551,3743,Patibila,23.28938953,89.03723134
1552,3723,Pashapole,23.19768362,89.07837854
1554,4485,Singhajhuli,23.23312664,89.05812926
1555,4591,Sukpukhuria,23.24855676,88.93157643
1556,4629,Swarupdaha,23.25630131,88.97687402
1557,2015,Hakimpur,23.33742287,89.03959281
1559,1743,Gadkhali,23.09484664,89.05597539
1560,2291,Jhikargachha,23.10160567,89.13336338
1561,3333,Nabharan,23.05645098,89.02833009
1562,3482,Nibaskhola,23.02296445,89.05177747
1563,3658,Panisara,23.06465729,89.08506886
1564,459,Bankra,22.96143899,89.07815905
1565,4370,Shankarpur,22.9613724,89.01551241
1566,4429,Shimulia,23.114124,89.02534002
1567,2012,Hajirbagh,22.98382682,89.05099035
1568,3001,Magura,23.15700959,89.07441507
1569,4577,Sufalakati,22.89669906,89.32380039
1570,4169,Sagardari,22.84428054,89.15143201
1571,3063,Majidpur,22.87769382,89.20474213
1573,809,Bidyanandakati,22.83978612,89.20719365
1574,3660,Panjia,22.91653439,89.27391271
1575,4746,Trimohini,22.90032584,89.15483263
1576,1805,Gaurighona,22.85596329,89.32488919
1577,2667,Keshabpur,22.9259575,89.23068147
1594,4381,Sharsha,23.06638766,88.97136514
1595,2884,Lakshmanpur,23.11793829,88.94136954
1596,660,Benapole,23.0498028,88.8913782
1597,302,Bahadurpur,23.0917618,88.90078296
1598,264,Bagachra,22.97698503,88.96244786
1599,3921,Putkhali,23.00101862,88.89952073
1600,3509,Nizampur,23.11566308,88.98219296
1601,1570,Dihi,23.16733946,88.97021034
1602,1901,Goga,22.96309067,88.90027068
1603,2637,Kayba,22.93338012,88.9462882
1604,159,Anulia,22.43192454,89.22739074
1605,199,Assasuni,22.5158179,89.16637624
1606,2373,Kadakati,22.59221439,89.21089365
1607,2815,Kulla,22.6204049,89.17401583
1608,2683,Khajra,22.47729306,89.20908234
1609,1631,Durgapur,22.58912678,89.25355806
1610,3853,Pratapnagar,22.3884831,89.22630387
1611,900,Budhhata,22.57866827,89.15372621
1612,518,Baradal,22.51908221,89.23716359
1613,4561,Sreeula,22.44223112,89.17326372
1614,4502,Sobhnali,22.56428585,89.09959188
1615,2809,Kulia,22.63644999,89.04529239
1616,1399,Debhata,22.57734616,88.94976548
1617,3528,Noapara,22.54859575,89.0111588
1618,3688,Parulia,22.60915255,89.01250865
1619,4209,Sakhipur,22.57464786,88.98598071
1620,2842,Kushadanga,22.91344119,89.04693281
1621,2663,Keralkata,22.91991979,89.00882084
1622,2662,Keragachhi,22.83720309,88.98708149
1623,2400,Kaila,22.85604906,89.05265939
1624,2231,Jallabad,22.83919981,89.09490224
1625,2316,Jogikhali,22.89082843,89.08881743
1627,4507,Sonabaria,22.87271524,88.96988551
1628,2103,Helatala,22.8841616,89.02252703
1629,969,Chandanpur,22.89992865,88.93447115
1631,2336,Joynagar,22.85556485,89.1135242
1632,4412,Shibpur,22.7293863,89.01023088
1633,2872,Labsa,22.75336354,89.0886258
1634,790,Bhomra,22.65393108,88.96040646
1635,889,Brahmarajpur,22.70255106,89.10928408
1636,403,Balli,22.80162211,89.07770174
1637,466,Banshdaha,22.80299645,88.99054764
1638,323,Baikari,22.74077555,88.9412439
1639,1714,Fingri,22.62955822,89.10923767
1640,1535,Dhulihar,22.6712372,89.13789408
1641,2283,Jhaudanga,22.77151995,89.06298632
1642,1862,Ghona,22.71817493,88.97267529
1643,2855,Kuskhali,22.77264819,88.94316379
1644,86,Alipur,22.68101821,89.01573109
1645,33,Agardari,22.7423201,89.04553578
1646,221,Atulia,22.32861502,89.18402332
1647,2158,Ishwaripur,22.28425381,89.12183458
1648,2398,Kaikhali,22.25463938,89.04626946
1649,2599,Kashimari,22.36898648,89.15931759
1650,3548,Nurnagar,22.31691733,89.04170519
1651,3568,Padmapukur,22.32598391,89.23911409
1652,912,Burigoalini,22.28125189,89.20325149
1653,801,Bhurulia,22.36889469,89.08292006
1654,3308,Munshiganj,22.25157979,89.17565105
1655,4001,Ramjannagar,22.25009327,89.08396218
1656,4448,Shyamnagar,22.32928199,89.09805153
1657,1738,Gabura,22.25390451,89.2774159
1658,4292,Sarulia,22.77396299,89.15519709
1659,3002,Magura,22.71380619,89.22289181
1660,3346,Nagarghata,22.75655386,89.12230359
1661,1481,Dhandia,22.81008052,89.12470719
1662,4703,Tentulia,22.8039587,89.23142344
1663,4643,Tala,22.77406469,89.26345388
1664,2224,Jalalpur,22.69886485,89.24609186
1665,2733,Khesra,22.65665425,89.23094799
1666,2694,Khalishkhali,22.71241419,89.17735491
1667,2689,Khalilnagar,22.73860316,89.29477041
1668,2825,Kumira,22.78542576,89.1874422
1669,2163,Islamkati,22.75556091,89.21899199
1670,2848,Kushlia,22.4449864,89.04753168
1671,953,Champaphul,22.49275978,89.1341704
1672,4676,Tarali,22.4853522,89.05382518
1673,1309,Dakshin Sreepur,22.46534136,89.10106236
1674,1453,Dhalbaria,22.39477516,89.00814099
1675,3376,Nalta,22.52461882,89.04188457
1676,854,Bishnupur,22.42968173,89.11359181
1677,732,Bharasimla,22.48730588,89.0046404
1678,3149,Mathureshpur,22.44639913,89.01022131
1679,4080,Ratanpur,22.34690467,89.01423346
1680,3167,Mautala,22.41062128,89.07504855
1681,2792,Krishnanagar,22.38987018,89.12917844
1682,1360,Dariapur,23.70411415,88.59109594
1683,3272,Monakhali,23.68903596,88.62310031
1686,126,Amjhupi,23.76971959,88.68011843
1687,3835,Pirojpur,23.71375895,88.72993561
1688,2867,Kutubpur,23.83855082,88.63230053
1690,917,Buripota,23.76682681,88.59880257
1691,4702,Tentulbaria,23.89676442,88.74337873
1692,2642,Kazipur,23.93605065,88.77299153
1696,4344,Shaharbati,23.84943427,88.73735335
1699,2622,Kathuli,23.86871021,88.68856112
1701,4752,Tularampur,23.18427999,89.44059946
1702,2493,Kalora,23.10943756,89.46938952
1709,696,Bhadrabila,23.12241392,89.53273908
1710,227,Auria,23.1777521,89.55017007
1712,3301,Mulia,23.14836687,89.46570402
1714,2609,Kashipur,23.19466835,89.60938059
1715,3368,Naldi,23.26846432,89.53323975
1716,3518,Noagram,23.23578443,89.59248457
1717,2875,Lahuria,23.29122762,89.58043855
1718,3078,Mallikpur,23.1603052,89.660709
1720,2892,Lakshmipasha,23.15673178,89.62622986
1721,2339,Joypur,23.22246321,89.65382035
1724,2179,Itna,23.1521035,89.71543278
1728,4217,Salamabad,23.04080583,89.66084092
1731,2027,Hamidpur,22.98818361,89.59706079
1734,3910,Purulia,23.03334593,89.58884657
1735,2429,Kalabaria,22.99550923,89.68172255
1736,3164,Mauli,23.08167847,89.64199334
1740,3269,Mominpur,23.66681574,88.88848091
1742,4368,Shankarchandra,23.59493044,88.84570052
1744,2866,Kutubpur,23.59059243,88.96594429
1745,3569,Padmabila,23.6183791,88.9076473
1747,520,Baradi,23.75042765,88.87536204
1748,1778,Gangni,23.74925359,88.83264311
1749,2675,Khadimpur,23.70480993,88.84718421
1750,2276,Jehala,23.70965266,88.89832361
1752,1383,Dauki,23.74522012,88.97776248
1753,2247,Jamjami,23.70348675,88.99341214
1757,2464,Kalidashpur,23.78287991,88.96197868
1758,2821,Kumari,23.7674154,88.91211913
1759,2041,Hardi,23.80547239,88.89174179
1761,1333,Damurhuda,23.60902035,88.7549573
1763,3446,Natipota,23.64339976,88.70206936
1767,2352,Juranpur,23.6596898,88.769117
1768,4798,Uthali,23.4687414,88.83524188
1769,152,Andulbaria,23.47994375,88.90694006
1770,458,Banka,23.43277636,88.87949803
1776,3171,Mazampur,23.87510391,89.13827987
1778,65,Alampur,23.83149392,89.08091573
1780,46,Ailchara,23.83124052,89.0324052
1782,2285,Jhaudia,23.78720089,89.07039362
1783,4775,Ujangram,23.79605158,89.12532606
1784,4,Abdulpur,23.75348641,89.10404542
1785,2053,Harinarayanpur,23.73937697,89.14205419
1788,2632,Kaya,23.91686906,89.17567566
1793,1026,Chapra,23.85358025,89.17965305
1794,296,Bagulat,23.81346587,89.17205758
1795,2184,Jaduboyra,23.82259074,89.22345389
1797,3666,Panti,23.7805659,89.21823538
1799,2742,Khoksa,23.82267016,89.2707585
1800,3561,Osmanpur,23.7927786,89.26073865
1801,2259,Janipur,23.76201912,89.29933157
1802,4430,Shimulia,23.80012483,89.31613601
1804,105,Ambaria,23.8769837,89.35134404
1809,307,Bahalbaria,23.97521949,89.02876068
1810,4646,Talbaria,23.95855814,89.07374488
1811,587,Baruipara,23.92427327,89.05592884
1812,1722,Fulbaria,23.91895235,89.01427747
1813,128,Amla,23.90174869,88.9824982
1815,1184,Chhatian,23.87986496,88.99910573
1816,3845,Poradaha,23.88261654,89.0500233
1817,2836,Kursha,23.84110086,88.97444879
1818,106,Ambaria,23.81222336,88.9769218
1820,3072,Malihad,23.84871329,88.87983177
1821,1388,Daulatpur,23.99816434,88.84761529
1822,12,Adabaria,23.98582309,88.78140596
1824,866,Boalia,23.95678392,88.83294627
1826,173,Aria,23.93628136,88.91922699
1827,2692,Khalishakundi,23.90986439,88.88111998
1835,1503,Dharampur,24.02931391,88.95131799
1836,315,Bahirchar,24.02972077,89.02473767
1839,975,Chandgram,24.00072916,88.99930878
1840,303,Bahadurpur,24.11226219,88.95579258
1841,1482,Dhaneshwargati,23.40802995,89.28704615
1842,4650,Talkhari,23.37075635,89.31522106
1843,180,Arpara,23.36115723,89.38426352
1844,4386,Shatakhali,23.32924829,89.34733632
1845,4360,Shalikha,23.30135739,89.3973772
1846,906,Bunagati,23.32435159,89.42432223
1849,4544,Sreekol,23.58218105,89.37093336
1850,1359,Dariapur,23.61767412,89.45961665
1851,2381,Kadirpara,23.57385771,89.47573283
1853,4552,Sreepur,23.59934365,89.41248375
1854,3361,Nakol,23.54578008,89.49324816
1856,2099,Hazipur,23.53547988,89.34961079
1860,2101,Hazrapur,23.50059376,89.330435
1862,2201,Jagdal,23.419457,89.42398482
1866,2799,Kuchiamora,23.36262073,89.4372065
1867,1927,Gopalgram,23.38626693,89.48289542
1869,1556,Digha,23.45243538,89.58213285
1871,3617,Palashbaria,23.34286178,89.5835044
1872,243,Babukhali,23.48440583,89.54397407
1873,389,Balidia,23.39760693,89.55458068
1875,3240,Mohammadpur,23.40815862,89.59335275
1876,3962,Rajapur,23.37133107,89.52861255
1881,1413,Deluti,22.62156477,89.41363407
1884,4060,Raruli,22.60919611,89.26985702
1885,988,Chandkhali,22.53397782,89.27381685
1888,1328,Damodar,22.9517247,89.45938905
1890,2245,Jamira,22.93875528,89.41873145
1891,4339,Senhati,22.87676108,89.55647911
1893,548,Barakpur,22.93276478,89.54764678
1902,4713,Terokhada,22.96455966,89.69228252
1904,555,Barasat,22.92206028,89.64194675
1908,1613,Dumuria,22.81886244,89.42156353
1916,217,Atlia,22.79365932,89.32847778
1917,1466,Dhamalia,22.91176292,89.37746926
1918,3935,Raghunathpur,22.87805211,89.41686786
1921,3008,Magurkhali,22.70241103,89.38689539
1923,122,Amirpur,22.74227217,89.58341301
1925,4617,Surkhali,22.66779228,89.45516414
1927,380,Baliadanga,22.71921367,89.54713286
1930,342,Bajua,22.56009157,89.54274812
1931,2517,Kamarkhola,22.54039792,89.47192015
1932,4730,Tildanga,22.56476123,89.43847524
1933,4623,Sutarkhali,22.4746329,89.44824208
1935,3663,Pankhali,22.61478145,89.4876798
1936,456,Banishanta,22.46997179,89.56799321
1938,2789,Koyra,22.33493848,89.29830711
1943,98,Amadi,22.48397294,89.30496348
1944,266,Bagali,22.43309167,89.28895622
1945,666,Betaga,22.7058155,89.61578002
1946,2878,Lakhpur,22.74615542,89.61910781
1947,1671,Fakirhat,22.75313321,89.7126948
1949,3824,Piljanga,22.73523079,89.66673399
1951,3298,Mulghar,22.80438622,89.76164838
1953,2570,Karapara,22.64209938,89.76717229
1955,1954,Gotapara,22.69140349,89.8208537
1960,2705,Khanpur,22.67263277,89.67573399
1962,1414,Dema,22.60217846,89.7544695
1964,1238,Chunkhola,22.94693604,89.76174653
1965,1777,Gangni,22.87941621,89.72579281
1966,2808,Kulia,22.88499389,89.74193033
1967,1786,Gaola,22.8349314,89.74448576
1968,2772,Kodalia,22.85255581,89.79756775
1969,216,Atjuri,22.89606303,89.81576328
1971,2748,Khontakata,22.34014554,89.86630315
1976,327,Baintala,22.61892928,89.68889248
1977,4020,Rampal,22.59111654,89.6338871
1978,3976,Rajnagar,22.59526242,89.57530141
1979,2132,Hurka,22.55551679,89.61594402
1980,3811,Perikhali,22.53836862,89.67189376
1984,4694,Teligati,22.57353988,89.81074553
1985,3635,Panchakaran,22.52952668,89.79936758
1986,3918,Putikhali,22.51669613,89.83837937
1987,1256,Daibagnyahati,22.54569707,89.86279833
1988,3990,Ramchandrapur,22.55224936,89.90788005
1989,1213,Chingrakhali,22.51889459,89.90329219
1990,2308,Jiudhara,22.46198597,89.73972575
1991,2115,Hoglapasha,22.57388232,89.94272587
1992,424,Banagram,22.5959811,89.91392418
1993,364,Balaibunia,22.49152618,89.8661824
1994,2116,Hoglabunia,22.46007775,89.90694688
1995,310,Baharbunia,22.49602501,89.7744563
1996,3274,Morrelganj,22.43975442,89.83835737
1998,3503,Nishanbaria,22.41167391,89.78136956
1999,538,Baraikhali,22.47232278,89.81915259
2001,1527,Dhopakhali,22.7069599,89.85191379
2003,2367,Kachua,22.64490811,89.88230751
2004,1933,Gopalpur,22.62427929,89.89798769
2005,4058,Raripara,22.61825063,89.85067315
2006,260,Badhal,22.58115725,89.86349128
2008,3217,Mithakhali,22.48640024,89.67646769
2011,1206,Chila,22.41373059,89.63563958
2012,4605,Sundarban,22.43355078,89.67856228
2014,2451,Kalatala,22.83899722,89.92826117
2015,2110,Hizla,22.82046154,89.88422766
2016,4411,Shibpur,22.82633253,89.84604627
2017,1220,Chitalmari,22.78594312,89.81917582
2020,4155,Sadhuhati,23.55168006,88.99095177
2022,4168,Saganna,23.56069298,89.04357198
2023,2023,Halidhani,23.55213808,89.07553996
2024,2826,Kumrabaria,23.5358673,89.1070424
2025,1783,Ganna,23.48727545,89.07606116
2027,3576,Paglakanai,23.52480124,89.14733486
2028,3847,Porahati,23.55849431,89.22278411
2030,3570,Padmakar,23.5288888,89.28407672
2031,1581,Dogachhi,23.51243787,89.25284134
2033,1867,Ghorshal,23.46643358,89.24005695
2034,2462,Kalicharanpur,23.51501994,89.20952152
2035,4615,Surat,23.48563726,89.19812152
2036,3364,Naldanga,23.45968469,89.18054447
2037,4744,Tribeni,23.71174382,89.15687336
2038,3209,Mirzapur,23.67456648,89.15195654
2040,2535,Kancherkol,23.73574891,89.20240382
2041,4293,Sarutia,23.7326751,89.25952915
2042,2016,Hakimpur,23.6984391,89.30291221
2044,3108,Manoharpur,23.66143035,89.2701295
2046,0,Abaipur,23.59762103,89.32057699
2047,3508,Nityanandapur,23.60114016,89.27000055
2048,4787,Umedpur,23.64319507,89.23020101
2050,1727,Fulhari,23.63457301,89.16971353
2051,762,Bhayna,23.73267866,89.08515176
2053,4636,Taherhuda,23.66979819,89.03315368
2054,1387,Daulatpur,23.60896553,89.02146079
2057,3934,Raghunathpur,23.65156497,89.1087629
2058,1002,Chandpur,23.5944981,89.13730298
2059,4611,Sundarpurdurgapur,23.4385404,89.12618305
2060,2234,Jamal,23.42594543,89.21464991
2061,2777,Kola,23.38496782,89.22915701
2062,3479,Niamatpur,23.39530531,89.17605326
2064,4745,Trilochanpur,23.39186572,89.07429232
2066,3069,Maliat,23.34690867,89.21118612
2067,481,Barabazar,23.31139409,89.16826495
2068,2612,Kashtabhanga,23.29457413,89.12068838
2069,3985,Rakhalgachhi,23.34745295,89.10521161
2070,4139,Sabdalpur,23.44334276,88.9554877
2071,1590,Dora,23.49984472,88.96806568
2072,2850,Kushna,23.46246239,89.02537637
2073,408,Baluhar,23.41694161,88.97320958
2074,1652,Elangi,23.41414878,89.0510158
2077,3665,Panthapara,23.36594489,88.87787546
2078,4630,Swaruppur,23.35457322,88.80814839
2079,4447,Shyamkur,23.33634739,88.7787997
2080,3471,Nepa,23.28658858,88.76754474
2081,2648,Kazirber,23.24745704,88.78821995
2082,464,Banshbaria,23.28442456,88.8194181
2083,2183,Jadabpur,23.25924193,88.87085009
2084,3445,Natima,23.31174844,88.88797563
2086,235,Azampur,23.35477341,88.98195139
2087,593,Basanda,22.67095194,90.21243071
2088,829,Binoykati,22.72610425,90.24558245
2089,1733,Gabharamchandrapur,22.75496206,90.20072662
2090,2659,Keora,22.66152008,90.1655449
2091,2763,Kirtipasha,22.68919997,90.17119595
2092,3330,Nabagram,22.72011346,90.19669826
2093,3444,Nathullabad,22.68679204,90.25084797
2094,3841,Ponabalia,22.61452802,90.1996698
2095,4328,Sekherhat,22.64296039,90.12345871
2096,1734,Gabkhandhansiri,22.62536614,90.16413159
2097,143,Amua,22.37732187,90.07795633
2099,1165,Chenchrirampur,22.42600223,90.06729381
2100,2557,Kanthalia,22.39284665,90.11675167
2103,4574,Subidpur,22.54665262,90.25912284
2104,4452,Siddhakati,22.61242348,90.29912404
2105,4031,Ranapasha,22.53540511,90.20868204
2106,3338,Nachanmohal,22.57972707,90.2180677
2107,3264,Mollahat,22.52280567,90.23844082
2108,2990,Magar,22.6672984,90.28652654
2109,2840,Kusanghal,22.58583898,90.28708423
2111,1347,Dapdapia,22.62354776,90.32520552
2112,733,Bharabpasha,22.65375513,90.24663136
2113,4592,Suktagarh,22.59941122,90.12624363
2114,4318,Saturia,22.55671042,90.07622981
2115,3141,Mathbari,22.57327863,90.17302691
2116,1764,Galua,22.51561633,90.11107193
2118,3959,Rajapur,22.5546457,90.12506762
2119,11,Adabaria,22.36823489,90.45205064
2120,619,Bauphal,22.39079229,90.5162138
2121,1372,Daspara,22.38534975,90.55937129
2122,2436,Kalaiya,22.36172341,90.62037975
2125,2964,Madanpura,22.44415097,90.52505095
2127,2524,Kanakdia,22.46122337,90.47730105
2129,2666,Keshabpur,22.50418975,90.57081158
2130,1533,Dhulia,22.5492148,90.54838805
2131,2484,Kalisuri,22.51438683,90.49873957
2134,2949,Lohalia,22.38750531,90.3932883
2135,2498,Kamalapur,22.33239089,90.42380954
2137,2473,Kalikapur,22.33072116,90.33218169
2138,257,Badarpur,22.38518662,90.3052855
2140,3124,Marichbunia,22.27393991,90.29315522
2141,224,Auliapur,22.28495805,90.350439
2144,2966,Madarbunia,22.32003543,90.29549106
2146,3313,Muradia,22.43825635,90.43361798
2148,155,Angaria,22.48705365,90.37784029
2151,4040,Rangopaldi,22.2105138,90.5107916
2152,84,Alipur,22.24726977,90.48943599
2154,1370,Dashmina,22.2688944,90.56119204
2157,4722,Tiakhali,22.00517353,90.26777221
2158,2908,Lalua,21.95621506,90.28925261
2159,1490,Dhankhali,22.06220533,90.32175827
2163,2921,Latachapli,21.83443547,90.13978391
2166,385,Baliatali,21.89250161,90.23789634
2168,2973,Madhabkhali,22.4482826,90.26239067
2169,3202,Mirzaganj,22.38789699,90.25385071
2171,1434,Deuli Subidkhali,22.34181696,90.19910868
2174,127,Amkhola,22.24634351,90.37484506
2175,1918,Golkhali,22.16122951,90.37442885
2176,1758,Galachipa,22.11941238,90.41291147
2177,3664,Panpatty,22.11239566,90.44297227
2178,4076,Ratandi Taltali,22.15485753,90.47136256
2179,1319,Dakua,22.19670202,90.44902493
2180,1205,Chiknikandi,22.24336048,90.45560794
2181,1816,Gazalia,22.23786956,90.41437805
2183,1053,Charbiswas,22.02066033,90.52812501
2184,360,Bakulbaria,22.31231812,90.48334416
2193,1623,Durgapur,22.6522005,89.98499885
2195,4740,Tona,22.61537931,89.99347188
2199,3074,Malikhali,22.82433905,89.9721537
2201,1575,Dirgha,22.75230148,90.01412969
2212,373,Balipara,22.42280012,89.91593206
2213,3751,Pattashi,22.48967372,89.90992563
2214,3678,Parerhat,22.52203038,89.95957097
2217,4698,Telikhali,22.40126983,89.94885987
2219,1498,Dhaoa,22.45766947,90.02421836
2223,1488,Dhanisafa,22.35233619,89.96208894
2224,3200,Mirukhali,22.36670485,90.00245978
2225,4725,Tikikata,22.27565486,89.98784299
2229,1378,Daudkhali,22.32657289,90.02302586
2230,3143,Mathbaria,22.30881037,89.96160002
2234,4503,Sohagdal,22.74018527,90.07374419
2238,1963,Guarekha,22.67812874,90.03624098
2244,2607,Kashipur,22.75136527,90.33393276
2245,1044,Charbaria,22.73641202,90.40858348
2247,1105,Charmonai,22.72408993,90.44251136
2251,4758,Tungibaria,22.68710779,90.46884543
2252,1008,Chandramohan,22.65478179,90.49360702
2253,1033,Charamaddi,22.63827521,90.41707166
2255,1358,Darial,22.61867369,90.4734965
2256,1596,Dudhal,22.5820379,90.43273224
2257,1619,Durgapasha,22.57059478,90.50436878
2258,1680,Faridpur,22.55255956,90.48450455
2259,2353,Kabai,22.53239301,90.43194776
2260,3378,Nalua,22.4883359,90.41245573
2262,1801,Garuria,22.56546963,90.3760353
2263,730,Bharpasha,22.50418165,90.33011998
2264,4038,Rangasree,22.55157566,90.3114357
2270,993,Chandpasha,22.78371396,90.34591597
2274,2069,Harta,22.86544824,90.09786927
2275,2230,Jalla,22.90406251,90.14249009
2276,3563,Otra,22.86402516,90.15392807
2279,419,Bamrail,22.85461032,90.23878386
2285,932,Chakhar,22.81898978,90.1898958
2286,4223,Saliabakpur,22.79412427,90.18173092
2288,427,Banaripara,22.76806694,90.15771512
2290,2702,Khanjapur,23.05385922,90.21254821
2291,583,Barthi,23.01474267,90.20761097
2292,1015,Chandshi,22.97345306,90.19981177
2293,3026,Mahilara,22.94093619,90.21604801
2294,3362,Nalchira,22.95367131,90.2740697
2295,605,Batajore,22.91490232,90.2620469
2296,4281,Sarikal,22.91009031,90.29850474
2298,345,Bakal,22.98178573,90.11892696
2299,274,Bagdha,22.94499951,90.09286549
2301,4082,Ratnapur,22.92540345,90.17049361
2303,2919,Lata,22.86794387,90.42272139
2305,4780,Ulania,22.84628799,90.59769588
2309,2255,Jangalia,22.75279683,90.5060697
2310,78,Alimabad,22.73318778,90.55708421
2311,996,Chandpur,22.829342,90.56834893
2313,1888,Gobindapur,22.85420838,90.62620531
2314,1070,Chargopalpur,22.73487854,90.52188976
2315,607,Batamara,23.01717361,90.33735974
2316,3464,Nazirpur,22.95899519,90.34202407
2317,4166,Safipur,23.02636955,90.38332563
2320,3295,Muladi,22.90983253,90.38055381
2321,2645,Kazirchar,22.84115284,90.37753038
2322,2054,Harinathpur,23.01473457,90.51225632
2323,3184,Memania,22.96761182,90.51875866
2324,1961,Guabaria,22.93095128,90.45942852
2327,1536,Dhulkhola,22.89526856,90.58310365
2331,2362,Kachia,22.73140302,90.65358909
2332,476,Bapta,22.70050779,90.63212709
2333,1484,Dhania,22.69921104,90.66621138
2342,1431,Deula,22.43701074,90.70812169
2344,3605,Pakshia,22.50585441,90.75348971
2345,2363,Kachia,22.43634339,90.74983912
2347,197,Aslampur,22.24850085,90.76411156
2349,117,Aminabad,22.1777637,90.71556333
2355,1101,Charmanika,22.02185526,90.66909452
2357,2207,Jahanpur,22.07661104,90.73227605
2358,3546,Nurabad,22.16060722,90.65375392
2359,4065,Rasulpur,22.07378415,90.69691357
2361,6,Abubakarpur,22.20877842,90.69732528
2364,3287,Mujibnagar,22.11193226,90.59423314
2366,2961,Madanpur,22.71597591,90.7142078
2368,1113,Charpata,22.63692073,90.69959651
2379,958,Chanchra,22.36442945,90.82764087
2381,4521,Sonapur,22.5228327,90.89970604
2384,256,Badarpur,22.37560279,90.69487506
2385,1051,Charbhuta,22.32542376,90.76753584
2386,2487,Kalma,22.37632227,90.73625418
2388,2905,Lalmohan,22.30777167,90.73635134
2391,3697,Paschim Char Umed,22.26819433,90.70086153
2393,139,Amtali,22.07560097,90.24706525
2396,2802,Kukua,22.2007789,90.29845935
2397,2018,Haldia,22.11194415,90.29841191
2400,1231,Chowra,22.1522044,90.25703449
2401,2955,M. Baliatali,22.08490702,90.08325706
2406,2660,Keorabunia,22.21576712,90.18629637
2407,232,Ayla Patakata,22.18792855,90.20716494
2409,1462,Dhalua,22.11846294,90.05703146
2410,561,Barguna,22.13331451,90.09027061
2411,805,Bibichini,22.46020405,90.20510324
2412,668,Betagi,22.42803571,90.19584684
2413,2121,Hosnabad,22.36298088,90.16596189
2414,3255,Mokamia,22.36701165,90.12982575
2416,2646,Kazirabad,22.26733623,90.13575183
2418,901,Bukabunia,22.30858332,90.05247248
2419,416,Bamna,22.30624582,90.08708297
2420,4010,Ramna,22.2592085,90.06349179
2422,3942,Raihanpur,22.18978696,89.99610569
2423,3339,Nachnapara,22.15640855,89.96580765
2425,3738,Patharghata,22.00272186,89.95244023
2426,2492,Kalmegha,22.08828062,89.99292305
2427,2419,Kakchira,22.15144623,90.01730329
2445,1435,Dewanbazar,24.7390288,91.85646262
2448,362,Balaganj,24.67082491,91.82103965
2450,4733,Tilpara,24.78259024,92.10181039
2451,83,Alinagar,24.88600198,92.1162664
2452,1140,Charkhai,24.91203958,92.17094585
2454,4394,Sheola,24.86958892,92.15041588
2455,2834,Kurarbazar,24.85539075,92.11306194
2456,3144,Mathiura,24.82265559,92.11103058
2458,3318,Muria,24.82950345,92.20560626
2459,2932,Lauta,24.78134222,92.16314883
2460,4021,Rampasha,24.84388262,91.72930376
2461,2910,Lamakazi,24.90676309,91.72090303
2463,69,Alankari,24.84551333,91.7812801
2465,857,Bishwanath,24.80239277,91.76330353
2467,1393,Daulatpur,24.82827474,91.69240808
2468,4697,Telikhal,25.0546824,91.74842753
2469,2170,Islampur Paschim,25.11076528,91.73959454
2470,2172,Islampur Purba,25.12703034,91.77791608
2475,1711,Fenchuganj,24.72413796,91.93579225
2478,3045,Maijgaon,24.68213217,91.9365191
2480,1720,Fulbari,24.85082537,91.99218661
2481,2888,Lakshmipasha,24.82495062,91.95876257
2483,1439,Dhakadakshin,24.81129674,92.03511067
2485,4806,Uttar Badepasha,24.75953968,92.06353076
2486,2882,Lakshanaband,24.77586243,91.98752264
2487,694,Bhadeshwar,24.75491727,92.0207789
2490,4137,Rustampur,25.12991367,91.88810137
2491,3707,Paschim Jaflong,25.14036273,91.95525511
2492,3890,Purba Jaflong,25.15348909,92.01809998
2493,2941,Lengura,25.0488118,91.97996671
2494,89,Alirgaon,25.08160177,92.04900669
2495,3387,Nandirgaon,25.01426533,91.86901786
2496,4743,Towakul,25.06052079,91.8918726
2498,3487,Nijpat,25.11192077,92.13160148
2499,2218,Jaintapur,25.14445257,92.08914564
2502,1701,Fatehpur,24.99524419,92.03799868
2503,1204,Chiknagul,24.95617182,92.001164
2510,2521,Kanaighat,24.98446961,92.23064378
2513,2222,Jalalabad,24.97807264,91.74557767
2515,2674,Khadimnagar,24.97277088,91.90306165
2516,2673,Khadimpara,24.9081477,91.95643187
2518,4750,Tukerbazar,24.93412648,91.86490571
2520,2543,Kandigaon,24.92318863,91.80998589
2521,3099,Manikpur,24.94659863,92.40916174
2522,4600,Sultanpur,24.89367892,92.42374021
2527,5152,Zakiganj,24.86296499,92.41851812
2530,2903,Lalabazar,24.80979417,91.81348027
2531,3229,Moglabazar,24.78234516,91.91464499
2533,4464,Silam,24.83334334,91.86845976
2534,1381,Daudpur,24.79953762,91.93850083
2535,3268,Mollargaon,24.88207662,91.82427301
2536,2797,Kuchai,24.85664452,91.90415771
2538,2226,Jalalpur,24.79083075,91.86029203
2539,4714,Tetli,24.84560373,91.83133061
2540,4649,Talimpur,24.68519488,92.08477969
2542,1368,Dasherbazar,24.7378968,92.14176482
2546,4649,Talimpur,24.68519488,92.08477969
2550,4583,Sujanagar,24.66621381,92.13493238
2551,16,Adampur,24.28482917,91.86321579
2552,3728,Patanushar,24.42462881,91.88136686
2553,2975,Madhabpur,24.27059472,91.81690556
2554,3939,Rahimpur,24.42460039,91.81775234
2555,4366,Shamshernagar,24.38306339,91.89651958
2557,2169,Islampur,24.21633518,91.86765195
2558,3306,Munshibazar,24.39634965,91.85899352
2559,82,Alinagar,24.33826964,91.88517642
2560,551,Baramchal,24.57926993,91.96953257
2561,797,Bhukshimail,24.58527661,92.03342351
2562,2328,Joychandi,24.53152151,92.0762235
2565,2806,Kulaura,24.49137745,92.0512069
2567,4726,Tilagaon,24.46188277,91.95033289
2568,4380,Sharifpur,24.3738813,91.95911743
2571,748,Bhatera,24.62615705,91.99070461
2573,137,Amtail,24.48223359,91.69153031
2574,2690,Khalilpur,24.57359133,91.65298973
2576,2505,Kamalpur,24.54604095,91.70962934
2578,54,Akhailkura,24.5594587,91.74072961
2579,1645,Ekatuna,24.51829388,91.78191509
2582,3462,Nazirabad,24.44188105,91.67382032
2583,3278,Mostafapur,24.46603882,91.75838099
2584,1875,Giasnagar,24.42608613,91.74478006
2588,3644,Panchgaon,24.55813772,91.83382456
2589,3978,Rajnagar,24.54468101,91.87425653
2590,4701,Tengra,24.50940552,91.89787388
2591,2506,Kamarchak,24.47412784,91.87039242
2593,3213,Mirzapur,24.421099,91.63291843
2594,800,Bhunabir,24.33323914,91.65502114
2595,4545,Sreemangal,24.32291438,91.71286657
2596,4474,Sindurkhan,24.25643993,91.66013537
2597,2445,Kalapur,24.37645337,91.72080241
2598,186,Ashidron,24.27706016,91.69948957
2599,3972,Rajghat,24.19573333,91.70902768
2600,2468,Kalighat,24.30088139,91.74993618
2613,2839,Kurshi,24.58998036,91.56150449
2616,623,Bausha,24.52301279,91.52860547
2621,4499,Snanghat,24.42731567,91.52769303
2622,3917,Putijuri,24.38947602,91.58610491
2625,2912,Lamatashi,24.31670435,91.49656252
2626,3195,Mirpur,24.27866872,91.51408021
2627,693,Bhadeshwar,24.30893948,91.57710362
2628,4408,Shibpasha,24.51084702,91.28546873
2637,1392,Daulatpur,24.66017714,91.36873916
2638,2678,Khagaura,24.48560229,91.44562938
2639,542,Baraiuri,24.51865181,91.44224257
2640,2390,Kagapasha,24.59021031,91.40981223
2642,4575,Subidpur,24.45586232,91.35898447
2643,3065,Makrampur,24.40426375,91.35323447
2644,4585,Sujatpur,24.38982664,91.27666564
2645,3086,Mandari,24.43837596,91.31969864
2646,3316,Muradpur,24.4675414,91.26453789
2647,3594,Pailarkandi,24.42817178,91.25595399
2648,2876,Lakhai,24.28286434,91.20361272
2649,3317,Murakari,24.23805579,91.25179045
2650,3319,Muriauk,24.26496048,91.28007972
2652,2571,Karab,24.29953203,91.32260336
2653,903,Bulla,24.34089982,91.27834852
2654,1826,Gazipur,24.11518567,91.58521959
2657,3584,Paikpara,24.16838907,91.45965144
2659,1235,Chunarughat,24.23727882,91.50956722
2660,4765,Ubahata,24.24825546,91.47682114
2661,4387,Shatiajuri,24.26069246,91.5679917
2662,4049,Ranigaon,24.21727869,91.58381227
2665,4093,Richi,24.3633093,91.38754133
2667,3838,Poil,24.36123804,91.45887256
2668,1939,Gopaya,24.33254859,91.40781587
2670,3549,Nurpur,24.27614325,91.3599066
2674,1508,Dharmaghar,24.00227324,91.34079445
2676,308,Bahara,24.06621459,91.33741155
2679,4353,Shahjahanpur,24.12595128,91.39002347
2680,2192,Jagadishpur,24.15485377,91.33547463
2681,904,Bulla,24.15473237,91.29041124
2682,3531,Noapara,24.17665189,91.36560029
2683,1183,Chhatiain,24.2101652,91.31604877
2685,2205,Jahangirnagar,25.15247731,91.40638177
2686,4037,Rangarchar,25.11655291,91.46846857
2692,4619,Surma,25.10983402,91.41505861
2694,4424,Shimulbak,24.92742599,91.30109314
2695,3713,Paschim Pagla,24.91026407,91.43310351
2697,3897,Purba Pagla,24.97788135,91.4353568
2698,3740,Patharia,24.89525617,91.34438158
2701,3695,Paschim Birgaon,24.85291865,91.40397458
2702,3612,Palash,25.1029061,91.32954036
2708,3533,Noarai,25.04557158,91.63421091
2710,2448,Kalaruka,24.97757589,91.67643459
2717,4477,Singchapair,24.88425631,91.56202354
2719,749,Bhatgaon,24.85264241,91.55513798
2722,3196,Mirpur,24.78508596,91.62117357
2724,4048,Raniganj,24.73001119,91.54962243
2726,185,Asharkandi,24.71065403,91.62901855
2727,3595,Pailgaon,24.68707571,91.56312765
2728,447,Banglabazar,25.12909687,91.60175579
2731,3104,Mannargaon,25.06512203,91.50174485
2736,4618,Surma,25.0739695,91.53885922
2743,395,Balijuri,25.10446817,91.23752268
2747,2986,Madhyanagar,25.04824628,90.97918964
2748,3592,Paikurati,24.98561659,91.00089057
2754,639,Beheli,25.00916293,91.16211677
2755,4145,Sachnabazar,25.00299281,91.27480015
2759,207,Atgaon,24.72887474,91.19636552
2760,1986,Habibpur,24.70191614,91.31558083
2761,309,Bahara,24.66493681,91.24682982
2763,3930,Rafinagar,24.82785393,91.23103877
2764,753,Bhatipara,24.87226404,91.30186141
2765,3957,Rajanagar,24.8147894,91.3006921
2766,1142,Charnarchar,24.77039019,91.24141014
2767,1429,Derai Sarmangal,24.77035815,91.30822837
2768,2585,Karimpur,24.81079791,91.37562117
2770,4675,Taral,24.7404312,91.37285891
2771,2805,Kulanj,24.70912894,91.42633377
2772,129,Amlaba,24.07094514,90.83771345
2773,340,Bajnaba,24.10952118,90.81600851
2774,644,Belabo,24.09529698,90.86187834
2778,4229,Sallabad,24.06762595,90.92425496
2779,3753,Patuli,24.14079312,90.79498562
2781,485,Barachapa,24.18283617,90.7710165
2782,939,Chalakchar,24.17145144,90.72269472
2783,1100,Charmandalia,24.235682,90.74443784
2784,1648,Ekduaria,24.09263156,90.71909088
2785,1956,Gotashia,24.11017672,90.7626632
2786,2539,Kanchikata,24.15212253,90.74730401
2787,2736,Khidirpur,24.21614021,90.73923686
2788,4444,Shukundi,24.11844264,90.71224195
2792,964,Chandanbari,24.16240536,90.69290529
2793,91,Alokbali,23.88449948,90.80180708
2794,1060,Chardighaldi,23.82580632,90.75429363
2795,1214,Chinishpur,23.93477958,90.7283551
2796,2008,Hajipur,23.9273735,90.74393296
2797,2584,Karimpur,23.87732324,90.76275727
2800,3031,Mahishasura,23.86123713,90.69455824
2801,3180,Meherpara,23.87252638,90.65406394
2802,3459,Nazarpur,23.87689871,90.71314477
2803,3586,Paikarchar,23.81951458,90.71380629
2804,3639,Panchdona,23.9032242,90.65283015
2805,4468,Silmandi,23.89238277,90.67969673
2806,112,Amdia,23.87354825,90.61917476
2807,1336,Danga,23.90362273,90.59370226
2808,1125,Charsindur,24.00153725,90.66219435
2809,2302,Jinardi,23.94609435,90.66455051
2810,1820,Gazaria,23.96693932,90.6982031
2812,87,Alipura,24.01532117,90.88504375
2813,121,Amirganj,23.9248142,90.77318999
2814,23,Adiabad,23.96761645,90.79807466
2815,468,Banshgari,23.91055703,90.89148244
2816,973,Chanderkandi,23.99475669,90.88994603
2817,1037,Chararalia,23.89523983,90.76888716
2818,1096,Charmadhua,23.88472891,90.88038141
2819,1126,Charsubuddi,23.94096821,90.82973926
2820,1382,Daukarchar,23.94598029,90.76753314
2821,2000,Hairmara,23.92249602,90.8111933
2822,3022,Maheshpur,24.00361623,90.94048801
2823,3204,Mirzanagar,23.95246292,90.81013575
2824,3215,Mirzarchar,23.88636195,90.9078317
2825,3493,Nilakhya,23.8986695,90.84005011
2826,3619,Palashtali,23.97686199,90.84280742
2827,3674,Paratali,23.93691239,90.90631226
2828,4550,Sreenagar,23.95053484,90.86879963
2829,4121,Roypura,23.98247094,90.92375644
2830,3323,Musapur,24.03717856,90.94569255
2831,4807,Uttar Bakharnagar,24.02445805,90.86823622
2832,3127,Marjal,24.02926084,90.84070774
2833,1604,Dulalpur,24.05800874,90.67456639
2834,2333,Joynagar,24.06200959,90.7948931
2835,4154,Sadharchar,23.98947818,90.68982777
2836,3133,Masimpur,24.03274513,90.71404095
2837,929,Chakradha,24.06866317,90.74369522
2840,234,Ayubpur,23.96874198,90.75302393
2841,3914,Putia,23.97091499,90.72423254
2842,305,Bahadursadi,23.95697714,90.5929543
2843,357,Baktarpur,23.96886673,90.54315306
2845,2256,Jangalia,24.01469294,90.527674
2846,3262,Moktarpur,24.02014328,90.61116855
2847,3347,Nagari,23.89032549,90.49403996
2848,4757,Tumulia,23.91559016,90.53634257
2849,201,Atabaha,24.02226242,90.21347694
2850,863,Boali,24.1287434,90.30244119
2851,1022,Chapair,24.12691547,90.24142914
2853,1721,Fulbaria,24.18477162,90.29641967
2854,2987,Madhyapara,24.08124505,90.30920371
2855,3280,Mouchak,24.05026173,90.27393151
2856,4626,Sutrapur,24.07637529,90.18308639
2858,568,Barishaba,24.19114218,90.64274114
2859,1836,Ghagotia,24.14906018,90.66518811
2860,2566,Kapasia,24.10006097,90.55043839
2861,999,Chandpur,24.06511951,90.51917596
2863,2581,Karihata,24.13930249,90.61979741
2866,1628,Durgapur,24.06919917,90.6085125
2868,4088,Rayed,24.19683932,90.57549863
2869,563,Baria,23.98466131,90.47816267
2870,592,Basan,23.99151598,90.36816305
2871,1739,Gachha,23.94744171,90.37717112
2872,2601,Kashimpur,23.98249146,90.29464568
2873,2634,Kayaltia,24.05449418,90.38460576
2874,2782,Konabari,24.01739034,90.32669909
2875,3206,Mirzapur,24.12741514,90.40135952
2876,3856,Pubail,23.92847034,90.45307896
2877,577,Barmi,24.24814938,90.49761801
2878,1824,Gazipur,24.27059795,90.3443708
2879,1953,Gosinga,24.17377647,90.51747222
2880,3115,Maona,24.20919982,90.36432298
2881,2563,Kaoraid,24.30094247,90.47020973
2882,3850,Prahladpur,24.05414206,90.46406315
2883,3948,Rajabari,24.11676657,90.48212725
2884,4696,Telihati,24.2499201,90.43530881
2885,827,Binodpur,23.23035098,90.28981689
2886,4753,Tulasar,23.21662716,90.31868217
2887,3623,Palong,23.20822374,90.38354241
2889,4124,Rudrakar,23.16579941,90.35737365
2890,156,Angaria,23.16168044,90.31593829
2894,1013,Chandrapur,23.25860887,90.2577362
2896,2653,Kedarpur,23.31015148,90.43821497
2897,1574,Dingamanik,23.25916285,90.46213379
2901,1040,Charatra,23.34058068,90.44618229
2902,3975,Rajnagar,23.3012538,90.33994697
2903,2261,Japsa,23.26830161,90.3708855
2910,3302,Mulna,23.31547408,90.29824611
2912,817,Bilaspur,23.32933212,90.36707527
2914,3621,Palerchar,23.40632664,90.3364083
2921,3354,Nager Para,23.08054201,90.3685128
2923,2774,Kodalpur,23.09631092,90.48859267
2926,3375,Nalmuri,23.02263428,90.43039391
2930,3029,Mahisar,23.19160203,90.4297657
2932,3414,Narayanpur,23.17865554,90.46642654
2934,1092,Charkumaria,23.1719088,90.49813795
2935,4208,Sakhipur,23.23777716,90.52859484
2936,2364,Kachikata,23.35861186,90.5286622
2944,3882,Purba Damudya,23.13186304,90.47007923
2945,2160,Islampur,23.16490551,90.39288006
2947,4460,Sidya,23.16880577,90.44683027
2948,1365,Darulaman,23.14750457,90.45465359
2949,4303,Satgram,23.84006683,90.62762535
2950,1615,Duptara,23.80342814,90.61161174
2953,850,Bishnandi,23.76063961,90.71593549
2954,3034,Mahmudpur,23.76685272,90.68904891
2957,2427,Kalapaharia,23.69195581,90.71470703
2959,3322,Musapur,23.64478859,90.54714743
2961,430,Bandar,23.61895619,90.53579622
2962,1467,Dhamgar,23.67137743,90.56444036
2964,88,Alirtek,23.57954713,90.47859561
2965,2608,Kashipur,23.60450456,90.48358384
2966,2865,Kutubpur,23.66710905,90.46182753
2967,1902,Gognagar,23.58436564,90.50086758
2970,3312,Murapara,23.78010861,90.53023908
2972,1915,Golakandail,23.77082197,90.57353595
2973,1379,Daudpur,23.86990209,90.53767542
2974,4133,Rupganj,23.82573117,90.51469182
2975,2639,Kayetpara,23.77515508,90.49648457
2978,4365,Shambhupura,23.58826501,90.55217237
2980,322,Baidyerbazar,23.66467439,90.62086451
2981,519,Baradi,23.69674049,90.64399729
2982,3517,Noagaon,23.72553869,90.63124856
2983,2249,Jampur,23.74309755,90.59309941
2984,4158,Sadipur,23.73100298,90.55713546
2987,591,Basail,24.22737169,90.06689962
2988,2534,Kanchanpur,24.18876564,90.08077052
2989,1991,Habla,24.18695937,90.00837002
2990,2598,Kashil,24.22122521,90.01437218
2991,1728,Fulki,24.27394768,90.0076797
2993,176,Arjuna,24.54830956,89.80072983
2995,1672,Falda,24.5107552,89.86806762
2998,3490,Nikrail,24.4212335,89.79145976
3000,2929,Lauhati,24.08189153,89.94044775
3002,1411,Delduar,24.1667606,89.96346399
3003,1706,Fazilhati,24.12066622,89.95784297
3004,1654,Elasin,24.11961746,89.91404649
3005,214,Atia,24.16158421,89.91943584
3006,1594,Dubail,24.14880496,89.99142296
3007,1432,Deulabari,24.53594397,89.98685308
3008,1850,Ghatail,24.50022406,89.9504098
3009,2252,Jamuria,24.45987245,89.96295138
3011,153,Anehola,24.43509854,89.91777161
3013,1551,Digar,24.42776876,90.00831026
3014,1422,Deopara,24.43637955,90.05744806
3015,4238,Sandhanpur,24.50420046,90.04158724
3016,4069,Rasulpur,24.50338952,90.14231079
3017,1449,Dhalapara,24.44343831,90.15805045
3019,2287,Jhawail,24.59926194,89.85000819
3021,1525,Dhopakandi,24.57634146,89.96344094
3024,3208,Mirzapur,24.5073608,89.91818687
3025,92,Alokdia,24.57025007,90.02750057
3029,1913,Golabari,24.61088582,89.97999987
3031,3019,Mahera,24.13890265,90.06010615
3032,2253,Jamurki,24.12918099,90.02591398
3034,426,Banail,24.10041882,90.00305142
3035,145,Anaitara,24.06830624,90.00917915
3038,321,Bahuria,24.05393071,90.12347483
3039,1946,Gorai,24.08575928,90.14671417
3040,47,Ajgana,24.13023261,90.19314459
3041,4672,Tarafpur,24.15973528,90.12868608
3044,2926,Latifpur,24.11986107,90.1391332
3052,3611,Pakutia,24.02907195,89.99478979
3055,695,Bhadra,23.98199647,89.85562755
3057,2424,Kakrajan,24.38487915,90.1316082
3060,2087,Hatibandha,24.21534752,90.13458102
3061,2456,Kalia,24.39752642,90.20897858
3066,1756,Gala,24.29581636,89.91487475
3067,1845,Gharinda,24.26606583,89.9563
3068,2577,Karatia,24.22511545,89.96082608
3069,4465,Silimpur,24.17926515,89.87387733
3070,3844,Porabari,24.21409188,89.86910401
3072,286,Baghil,24.29418725,89.86556958
3073,2425,Kakua,24.3211156,89.8045985
3074,2129,Hugra,24.26368906,89.81822557
3075,2627,Katuli,24.21811456,89.82097418
3076,3014,Mahamudnagar,24.17595412,89.82088337
3077,1630,Durgapur,24.35775641,89.84598335
3079,3407,Narandia,24.3949318,89.91286815
3081,2775,Kokdahara,24.34594236,90.00158224
3082,399,Balla,24.3162758,90.02433136
3083,4228,Salla,24.38452819,89.87889237
3084,3350,Nagbari,24.32974279,90.04715717
3085,450,Bangra,24.37759912,89.95756897
3089,1908,Gohaliabari,24.37284532,89.79930408
3090,1526,Dhopakhali,24.63897678,89.95540502
3091,3599,Paiska,24.68749705,89.91231565
3094,843,Birtara,24.71739949,89.89523166
3095,451,Baniajan,24.72917319,89.92543112
3100,262,Badla,24.55768477,91.02652345
3102,2178,Itna,24.54096445,91.09790609
3103,3282,Mriga,24.55520361,91.18509974
3106,423,Banagram,24.33336751,90.79062099
3107,4345,Shahasram Dhuldia,24.34100378,90.85343554
3108,2579,Kargaon,24.33761256,90.90664091
3109,1000,Chandpur,24.29853269,90.85061633
3110,3303,Mumurdia,24.286119,90.82651649
3114,2223,Jalalpur,24.21978456,90.80180556
3116,32,Aganagar,24.09137633,91.02951796
3117,4431,Shimulkandi,24.08618044,90.99818041
3120,4548,Sreenagar,24.11789912,90.97142411
3121,4410,Shibpur,24.07977751,90.96740585
3123,4087,Rauti,24.57243156,90.84881789
3125,2272,Jawar,24.56460379,90.92517582
3126,1326,Damiha,24.53255308,90.93706379
3127,1553,Digdair,24.51320354,90.90593645
3129,2303,Jinari,24.46972921,90.59946417
3130,1892,Gobindapur,24.46974127,90.69636331
3131,4455,Sidhla,24.45553894,90.64172522
3132,164,Araibaria,24.41631073,90.67211245
3133,4192,Sahedal,24.40073903,90.69292145
3134,3861,Pumdi,24.42920795,90.69913006
3135,2257,Jangalia,24.36667895,90.65883598
3136,2120,Hosendi,24.30660932,90.69637998
3137,3406,Narandi,24.33337081,90.71125815
3140,978,Chandipasha,24.36022094,90.72502393
3141,1066,Charfaradi,24.32596211,90.64513728
3143,1643,Egarasindur,24.27335888,90.66986102
3144,3607,Pakundia,24.3160753,90.66964541
3145,3993,Ramdi,24.17846759,90.88870778
3146,3560,Osmanpur,24.16802854,90.93232482
3147,1190,Chhaysuti,24.11669799,90.91030462
3148,4231,Salua,24.14018129,90.88686772
3149,1886,Gobaria Abdullahpur,24.17509137,90.84504964
3150,1681,Faridpur,24.11398431,90.86664299
3151,4062,Rashidabad,24.4630312,90.73772411
3152,2923,Latibabad,24.47210274,90.76290533
3157,823,Binnati,24.39842401,90.73048065
3158,3118,Maria,24.41534132,90.7545443
3162,2380,Kadirjangal,24.47041217,90.82733586
3163,1965,Gujadia,24.50452453,90.86008932
3166,3478,Niamatpur,24.47556399,90.93386624
3167,1410,Dehunda,24.47747475,90.90734038
3168,4622,Sutarpara,24.45685068,90.96735653
3170,2329,Joyka,24.39661803,90.88419719
3172,3514,Noabad,24.43161457,90.8743128
3173,2401,Kailag,24.23006682,90.95715315
3174,3833,Pirijpur,24.22426738,90.85466609
3175,1829,Gazirchar,24.18762994,90.93473965
3179,2024,Halimpur,24.25067291,90.88568613
3180,4271,Sararchar,24.21366117,90.89377101
3181,1572,Dilalpur,24.18348361,90.96160218
3182,1566,Dighirpar,24.23082578,90.98815564
3187,440,Bangalpara,24.23120544,91.0662039
3188,2488,Kalma,24.31347683,91.13769567
3189,15,Adampur,24.3383872,91.20793709
3191,3870,Purba Austagram,24.34205852,91.10989533
3194,1441,Dhaki,24.45562546,91.10908916
3195,1838,Ghagra,24.39574459,91.11103043
3198,330,Bairati,24.45782609,91.22225484
3201,2262,Jaraitala,24.28325697,90.90961133
3204,1331,Dampara,24.34513047,90.97769167
3205,4489,Singpur,24.39163436,90.99765971
3206,398,Balla,23.77732433,89.88034798
3207,1755,Gala,23.77944658,89.92548917
3208,938,Chala,23.76762869,89.96517355
3210,2070,Harukandi,23.71925901,90.00597472
3212,4007,Ramkrishnapur,23.73074748,89.94152042
3213,1943,Gopinathpur,23.74078055,89.90779108
3214,2533,Kanchanpur,23.73411426,89.87418352
3218,237,Azimnagar,23.65570597,89.98646239
3223,4731,Tilli,23.93550032,89.96797062
3225,4319,Saturia,23.95607893,90.043735
3226,1492,Dhankora,23.91096097,90.05508996
3227,1717,Fukurhati,23.92514009,90.02037081
3230,215,Atigram,23.87707383,90.09766951
3231,1563,Dighi,23.877556,89.97336211
3233,2083,Hatipara,23.74296144,90.05399145
3236,1799,Garpara,23.90455305,89.9740693
3237,2794,Krishnapur,23.84854145,90.07252211
3238,3593,Paila,23.92152478,89.87393098
3245,4709,Teota,23.87298014,89.74734514
3250,3231,Mohadebpur,23.84232388,89.86842352
3251,4428,Shimulia,23.8113177,89.88917249
3253,246,Bachamara,23.98008089,89.71296892
3254,290,Baghutia,23.9312278,89.73749745
3257,928,Chakmirpur,23.9533565,89.83783553
3263,371,Baldhara,23.78620005,90.09564507
3265,1137,Charigram,23.76093017,90.13186842
3268,1461,Dhalla,23.81643883,90.22054114
3269,2246,Jamirta,23.78050666,90.21065301
3270,976,Chandhar,23.73928127,90.21013687
3271,4323,Savar,23.86730178,90.27864277
3274,4427,Shimulia,23.99072065,90.22443615
3275,193,Ashulia,23.89297695,90.31358737
3276,5150,Yearpur,23.93045637,90.32091106
3280,2629,Kaundia,23.80667465,90.32693775
3281,4715,Tetuljhora,23.79943271,90.25895153
3282,116,Aminbazar,23.77434741,90.32750199
3283,1160,Chauhat,24.01894903,90.05336169
3284,135,Amta,23.97744701,90.05793833
3285,376,Balia,23.9866149,90.07660156
3286,2181,Jadabpur,24.00863955,90.11748843
3287,333,Baisakanda,23.99827082,90.15095697
3288,2854,Kushura,23.97002257,90.12384021
3289,1781,Gangutia,23.93594476,90.07977166
3290,4248,Sanora,23.94605718,90.12589399
3291,4624,Sutipara,23.9171503,90.12305024
3292,4506,Sombhag,23.93151312,90.17568647
3294,1472,Dhamrai,23.93660515,90.20113394
3295,2814,Kulla,23.8769604,90.21109302
3296,4100,Rowail,23.84406307,90.17766698
3297,4567,Suapur,23.87596235,90.13909434
3298,3395,Nannar,23.88890103,90.15994831
3299,2102,Hazratpur,23.74572975,90.24664709
3300,2452,Kalatia,23.71499108,90.28491105
3301,4677,Taranagar,23.74452682,90.30695283
3302,4215,Sakta,23.71550681,90.3334231
3303,4126,Ruhitpur,23.67329193,90.31007666
3304,597,Basta,23.65032437,90.35362551
3305,2480,Kalindi,23.70103663,90.36687893
3309,2784,Konda,23.64235904,90.43689877
3310,31,Aganagar,23.69920331,90.40225994
3311,4418,Shikaripara,23.70363711,90.07372737
3312,2331,Joykrishnapur,23.68352962,90.04666764
3313,584,Baruakhali,23.6694755,90.07615113
3314,3456,Nayansree,23.69697084,90.10525936
3315,4439,Sholla,23.70845519,90.16999772
3316,2260,Jantrail,23.68186939,90.14667688
3317,436,Bandura,23.65444142,90.11328352
3318,2439,Kalakopa,23.64990411,90.15286452
3319,350,Bakshanagar,23.64103088,90.17594005
3320,581,Barrah,23.6695401,90.19194554
3321,2402,Kailail,23.68282895,90.24671962
3322,36,Agla,23.64257351,90.22674002
3323,1762,Galimpur,23.6389242,90.19890215
3324,1240,Churain,23.60314568,90.20166493
3325,3452,Nayabari,23.64629848,90.03321721
3328,4621,Sutarpara,23.60352152,90.1506434
3329,3425,Narisha,23.57215592,90.15724437
3330,3288,Muksudpur,23.54531962,90.17438535
3331,3033,Mahmudpur,23.58979044,90.07968679
3332,816,Bilaspur,23.60192958,90.10760306
3333,4019,Rampal,23.54114184,90.49143351
3335,341,Bajrajogini,23.51773067,90.49056673
3337,1087,Charkewar,23.5081708,90.54888598
3339,21,Adhara,23.4558673,90.55165916
3341,446,Banglabazar,23.41102746,90.52735902
3342,537,Baraikhali,23.59453105,90.23932507
3344,842,Birtara,23.57548473,90.32384967
3346,4549,Sreenagar,23.55249076,90.271529
3347,3725,Patabhog,23.52709951,90.28817464
3349,2779,Kolapara,23.50687064,90.26735581
3352,4059,Rarikhal,23.52223822,90.23681372
3353,2803,Kukutia,23.5121281,90.31947413
3354,219,Atpara,23.54454012,90.31814265
3358,3956,Rajanagar,23.63381344,90.3048457
3360,590,Basail,23.61594537,90.36071125
3362,2922,Latabdi,23.59928887,90.39234569
3363,4074,Rasunia,23.57754009,90.36439347
3366,3075,Malkhanagar,23.55164251,90.42433659
3368,2776,Kola,23.56442117,90.34287692
3370,3173,Medinimandal,23.48152022,90.24973456
3371,2819,Kumarbhog,23.46482174,90.28019264
3372,2019,Haldia,23.4871356,90.29742277
3373,2526,Kanaksar,23.4855808,90.3227438
3375,641,Bejgaon,23.47881561,90.34633542
3377,2735,Khidirpara,23.5040781,90.39491041
3378,1784,Gaodia,23.44791868,90.36320139
3379,2489,Kalma,23.44156737,90.40123953
3383,406,Baluakandi,23.60175227,90.64060463
3387,2146,Imampur,23.51614171,90.61344273
3388,677,Betka,23.54171073,90.44931398
3391,231,Autshahi,23.51921361,90.42998905
3393,1519,Dhipur,23.49050796,90.4604577
3396,3643,Panchgaon,23.45875409,90.44508315
3397,2516,Kamarkhara,23.44484169,90.47124707
3398,2072,Hasailbanari,23.42353921,90.4331949
3404,454,Banibaha,23.69228583,89.6199044
3406,3297,Mulghar,23.66801898,89.65277242
3407,594,Basantapur,23.63754602,89.69747631
3408,2704,Khankhanapur,23.6886964,89.72325994
3409,85,Alipur,23.71352693,89.66660617
3410,4005,Ramkantapur,23.73704607,89.62223116
3411,4348,Shahidwahabpur,23.6743033,89.68982983
3412,3651,Panchuria,23.72274668,89.7078064
3413,4599,Sultanpur,23.60609892,89.7105215
3418,301,Bahadurpur,23.87492867,89.37753174
3420,2264,Jashai,23.8208256,89.38557318
3421,244,Babupara,23.78576547,89.39045672
3423,3749,Patta,23.72179935,89.39537961
3424,4284,Sarisha,23.74612323,89.36434578
3425,2479,Kalimahar,23.77229436,89.34436665
3426,2594,Kasbamajhail,23.71119214,89.33944304
3427,2956,Machhpara,23.81421349,89.35250395
3428,2166,Islampur,23.71175663,89.55754325
3429,313,Baharpur,23.6562412,89.58450049
3430,3450,Nawabpur,23.67722146,89.52192383
3431,3431,Narua,23.65076823,89.4700556
3432,381,Baliakandi,23.62763393,89.53716625
3434,2237,Jamalpur,23.61698394,89.62226287
3436,4077,Ratandia,23.79040506,89.49831254
3437,2476,Kalikapur,23.79274969,89.45707201
3438,865,Boalia,23.7523932,89.45775878
3440,2965,Madapur,23.75252649,89.5245059
3442,3283,Mrigi,23.69865351,89.45807837
3443,4495,Sirkhara,23.26877044,90.11055767
3444,300,Bahadurpur,23.23143611,90.1354618
3445,2831,Kunia,23.20699652,90.11854847
3449,1598,Dudkhali,23.21696836,90.15828522
3450,2475,Kalikapur,23.22886852,90.19372473
3451,1208,Chilarchar,23.23615755,90.23357008
3452,3646,Panchkhola,23.1935595,90.22024611
3453,1853,Ghatmajhi,23.14576847,90.17835447
3455,2740,Khoajpur,23.17544837,90.26164694
3456,4064,Rasti,23.18009459,90.18506635
3457,1543,Dhurail,23.25887367,90.14555858
3458,4403,Shibchar,23.34417901,90.14064141
3461,433,Bandarkhola,23.44179536,90.12919703
3467,2864,Kutubpur,23.39001051,90.21841558
3468,2383,Kadirpur,23.35826871,90.21910239
3473,4786,Umedpur,23.32403004,90.19454151
3476,1374,Dattapara,23.36429,90.11832633
3477,80,Alinagar,23.11674746,90.26134688
3478,392,Baligram,23.11258488,90.18530603
3483,1932,Gopalpur,23.06944207,90.1904858
3485,2640,Kazibakai,23.08116673,90.17551947
3488,4002,Ramjanpur,22.99612473,90.24828807
3492,2377,Kadambari,23.14791895,89.97549394
3493,338,Bajitpur,23.16366496,90.07992579
3494,114,Amgram,23.15435708,90.04594546
3495,3979,Rajoir,23.19280497,90.03323408
3499,2357,Kabirajpur,23.28346324,90.0758064
3501,3583,Paikpara,23.30857856,90.04142697
3502,2221,Jalalabad,23.10092262,89.70877874
3504,1007,Chandradighalia,23.07159149,89.77841793
3505,1942,Gopinathpur,23.11225179,89.76704334
3506,3590,Paikkandi,23.0397866,89.76908988
3509,4314,Satpar,23.1806263,89.95496301
3510,4182,Sahapur,23.09956414,89.93834325
3512,4784,Ulpur,23.07676122,89.8431443
3513,3512,Nizra,23.09439325,89.83180651
3514,2589,Karpara,23.07230875,89.89602218
3515,1629,Durgapur,23.04005522,89.84970417
3516,2414,Kajulia,23.04490122,89.94127887
3517,3058,Majhigati,23.0316508,89.87597547
3519,1896,Gobra,22.95556532,89.82071582
3521,2623,Kati,23.02484559,89.90423459
3523,2597,Kashiani,23.21596536,89.71584065
3524,2086,Hatiara,23.1638045,89.87656215
3525,1716,Fukura,23.15474231,89.76735082
3526,3980,Rajpat,23.17979097,89.85810505
3527,675,Bethuri,23.14779038,89.80578253
3528,3485,Nijamkandi,23.10854816,89.80309216
3529,4206,Sajail,23.23057281,89.76144788
3530,3080,Mamudpur,23.2178051,89.82729028
3531,3021,Maheshpur,23.27660517,89.77978058
3533,3687,Parulia,23.22829065,89.79911786
3534,4075,Ratail,23.1890324,89.72543629
3535,3858,Puisur,23.144305,89.84883766
3536,4478,Singa,23.14483032,89.89428001
3537,2847,Kushli,22.93344001,89.84997943
3538,1931,Gopalpur,22.96167552,89.91042675
3539,3730,Patgati,22.8916846,89.89789132
3542,4163,Sadullapur,23.08367209,90.07008505
3543,4028,Ramshil,23.02491177,90.09771391
3544,434,Bandhabari,23.00244262,90.06372706
3546,2846,Kushla,23.03146269,89.98605976
3548,3826,Pinjuri,22.95524595,89.96290193
3550,3922,Radhaganj,23.03319761,90.03514951
3552,2541,Kandi,22.90543104,89.99423891
3553,4776,Ujani,23.20449492,89.89300449
3555,1567,Dignagar,23.29765323,89.9880496
3560,463,Banshbaria,23.25468129,89.89785772
3563,610,Batikamari,23.32321118,89.96306386
3564,2229,Jalirpar,23.20654882,89.97283683
3565,3932,Raghdi,23.26188538,90.00815525
3566,1905,Gohala,23.24428869,89.98350196
3567,3225,Mochna,23.2732553,89.93902378
3569,2152,Ishangopalpur,23.65666204,89.76839701
3571,74,Aliabad,23.58705792,89.87837354
3572,4811,Uttarchannel,23.67381285,89.86685388
3573,1408,Decreerchar,23.62382633,89.87949343
3574,3053,Majchar,23.62014687,89.7632339
3575,2791,Krishnanagar,23.5677192,89.73936068
3576,108,Ambikapur,23.61623152,89.81557126
3577,2523,Kanaipur,23.52586461,89.77514552
3578,2396,Kaijuri,23.54754378,89.81738908
3579,1960,Greda,23.5496756,89.85884153
3580,910,Buraich,23.3134539,89.69039559
3581,71,Alfadanga,23.27507914,89.72382715
3582,4635,Tagarbanda,23.23905228,89.70147082
3583,421,Bana,23.32131008,89.62368268
3584,3650,Panchuria,23.36022489,89.62214823
3585,1930,Gopalpur,23.28189925,89.67707075
3586,871,Boalmari,23.41452099,89.68806314
3587,1249,Dadpur,23.46657082,89.69330917
3588,1151,Chatul,23.3898008,89.71003316
3589,1872,Ghoshpur,23.45624978,89.63157673
3590,1977,Gunbaha,23.37763811,89.65766602
3591,998,Chandpur,23.49857486,89.72701362
3592,3671,Parameshwardi,23.36038404,89.75816458
3593,4294,Satair,23.47200218,89.65850688
3594,4131,Rupapat,23.3148974,89.75446603
3595,4392,Shekhar,23.33874885,89.71677383
3596,3281,Moyna,23.41544739,89.63943792
3599,1108,Char Nasirpur,23.47333636,90.10747453
3601,745,Bhashanchar,23.48157257,90.00140092
3602,2793,Krishnapur,23.48929521,89.94485478
3603,4150,Sadarpur,23.46184602,90.03096626
3604,1099,Char Manair,23.40334726,90.08779596
3607,3866,Purapara,23.37458011,89.86635356
3608,2917,Laskardia,23.44781656,89.87920786
3609,4013,Ramnagar,23.53059535,89.90431609
3610,2394,Kaichail,23.40469926,89.91672653
3611,4652,Talma,23.48986283,89.8618969
3613,1338,Dangi,23.47457132,89.91287148
3614,2773,Kodalia Shohidnagar,23.39522399,89.88416919
3615,1848,Gharua,23.33858634,90.01848169
3619,3437,Nasirabad,23.42550966,90.06029529
3621,72,Algi,23.37093615,89.93455054
3623,2442,Kalamridha,23.32707621,90.06800867
3625,1006,Chandra,23.36510218,90.07393393
3626,2030,Hamirdi,23.41250693,89.95487303
3627,1831,Gazirtek,23.5765146,89.92918437
3628,1047,Char Bhadrasan,23.56362753,90.01132117
3629,1071,Char Harirampur,23.61473489,89.96975005
3631,2980,Madhukhali,23.52092434,89.64709991
3632,2210,Jahapur,23.51563016,89.70342199
3634,3177,Megchami,23.57350707,89.57779264
3635,3945,Raipur,23.53660114,89.70637917
3636,271,Bagat,23.51639935,89.57914051
3637,1608,Dumain,23.55841367,89.53231359
3639,2515,Kamarkhali,23.52098507,89.52713139
3640,760,Bhawal,23.43299413,89.81162561
3641,208,Atghar,23.47346512,89.75742554
3643,400,Ballabhdi,23.35829158,89.82347837
3644,1802,Gatti,23.473108,89.81310616
3645,2185,Jadunandi,23.35812681,89.7922085
3646,4004,Ramkantapur,23.43143207,89.75819119
3647,4524,Sonapur,23.40412268,89.78488937
3649,4310,Satmara,26.42933674,88.53456332
3650,103,Amarkhana,26.43628026,88.59099712
3651,2045,Haribhasa,26.38760645,88.65503734
3653,1995,Hafizabad,26.38594307,88.6105343
3655,1442,Dhakkamara,26.31740192,88.52367433
3656,3004,Magura,26.30171296,88.50147835
3657,1795,Garinabari,26.33004074,88.45413665
3658,1207,Chilahati,26.23905376,88.74598458
3661,3628,Pamuli,26.13651179,88.67614847
3662,4604,Sundardighi,26.0557408,88.69836673
3664,4712,Tepriganj,26.17033343,88.73428401
3673,965,Chandanbari,26.16796851,88.59553712
3675,873,Boda,26.2176351,88.61126171
3676,4213,Sakoa,26.19268465,88.63451019
3679,3928,Radhanagar,26.22090542,88.43579189
3681,369,Balarampur,26.21573913,88.48953954
3682,96,Alowakhowa,26.21252703,88.36518965
3683,1471,Dhamor,26.31625366,88.42485785
3684,448,Banglabandha,26.58982091,88.39626942
3687,909,Buraburi,26.50219973,88.45519938
3689,4221,Salbahan,26.50126523,88.41020683
3690,4708,Tentulia,26.49922666,88.36092134
3692,2340,Joypur,25.51325313,89.01919775
3693,825,Binodnagar,25.44376098,89.10106078
3695,4361,Shalkhuria,25.36032207,89.07649573
3696,3919,Putimara,25.32061495,89.07179701
3697,701,Bhaduria,25.33596831,89.12275203
3698,1380,Daudpur,25.39415593,89.12052782
3699,3036,Mahmudpur,25.36320934,89.17441733
3700,2844,Kushdaha,25.51094361,89.07787232
3701,4415,Shibrampur,25.99171261,88.57113677
3703,4385,Shatagram,25.98966272,88.67862622
3704,3627,Paltapur,25.84979944,88.70051477
3705,4581,Sujalpur,25.84476552,88.60579073
3706,3486,Nijpara,25.89424537,88.66939816
3707,3241,Mohammadpur,25.90864417,88.52603167
3708,779,Bhognagar,25.88968865,88.58887292
3712,902,Bulakipur,25.33162895,89.20565124
3714,4490,Singra,25.28731696,89.23516535
3715,1864,Ghoraghat,25.24699171,89.2171377
3717,2626,Katla,25.32137208,88.95893857
3718,2708,Khanpur,25.44172836,89.00492679
3723,646,Belaichandi,25.71187376,88.90251109
3725,4026,Rampur,25.66526041,88.94044497
3727,986,Chandipur,25.62105773,88.88948603
3728,3270,Mominpur,25.63436701,88.84216543
3730,1992,Habra,25.57542093,88.91772889
3731,2028,Hamidpur,25.55326204,88.98224673
3732,2063,Harirampur,25.56277634,89.04625845
3733,3343,Nafanagar,25.83557434,88.4203966
3735,206,Atgaon,25.75908614,88.48634739
3740,4072,Rasulpur,25.82036842,88.56993456
3741,3294,Mukundapur,25.80790913,88.6267543
3743,3991,Ramchandrapur,25.76547185,88.62653997
3744,4610,Sundarpur,25.78405131,88.68615625
3754,1708,Fazilpur,25.6963745,88.70737661
3757,225,Auliapur,25.57248856,88.62658269
3758,4799,Uthrail,25.54843711,88.6757826
3761,2504,Kamalpur,25.50075741,88.67754454
3762,75,Alihat,25.27459962,89.11014048
3765,95,Alokjhari,25.95789075,88.73290368
3766,772,Bherbheri,25.90170858,88.77701186
3767,154,Angarpara,25.87120914,88.79894245
3768,1881,Goaldihi,25.81613401,88.80343224
3769,690,Bhabki,25.80098368,88.74860873
3770,2696,Khamarpara,25.85523815,88.74951457
3771,239,Azimpur,25.7253382,88.60300165
3772,1676,Farakkabad,25.66514054,88.61102471
3777,813,Bijora,25.59729214,88.58715805
3778,1515,Dharmapur,25.54746876,88.54664763
3780,4044,Ranipukur,25.60129767,88.52704572
3783,4313,Satnala,25.74307677,88.79205947
3786,5,Abdulpur,25.66512043,88.79292141
3787,104,Amarpur,25.61324775,88.80125769
3788,223,Auliapukur,25.64033412,88.73630276
3793,94,Alokdihi,25.76691093,88.80795144
3794,3981,Rajpur,25.81949792,89.40216973
3795,2039,Harati,25.8698088,89.41135769
3797,1911,Gokunda,25.82237219,89.43884583
3799,2804,Kulaghat,25.91805544,89.49889856
3801,2754,Khuniagachh,25.84900032,89.36382284
3802,3634,Panchagram,25.83582691,89.50817975
3806,4761,Tushbhandar,25.95231327,89.22156445
3807,1947,Goral,26.00550452,89.33007664
3810,2422,Kakina,25.92403649,89.26274428
3812,1900,Goddimari,26.17759731,89.08139413
3815,4475,Sindurna,26.1056502,89.11473006
3818,1955,Gotamari,26.09565183,89.23362553
3821,1670,Fakirpara,26.2297665,89.10327928
3823,4560,Sreerampur,26.41478677,88.96976653
3824,3731,Patgram,26.36600563,89.00274816
3825,2198,Jagatber,26.36436581,89.06373769
3826,2800,Kuchlibari,26.31256457,89.00191993
3827,2318,Jongra,26.30920885,89.08646617
3828,620,Baura,26.25543912,89.08208584
3829,1254,Dahagram,26.29650964,88.95146432
3830,916,Burimari,26.37496838,88.94155455
3831,766,Bhelabari,25.97643767,89.39126601
3832,692,Bhadai,25.91020157,89.3528631
3834,1635,Durgapur,26.00308196,89.4193287
3835,4291,Sarpukur,25.92282434,89.38173609
3836,4261,Saptibari,25.93779213,89.42665876
3837,3618,Palashi,25.91777751,89.30642552
3839,2507,Kamarpukur,25.78810304,88.93000541
3841,443,Bangalipur,25.75274876,88.92179467
3843,2722,Khata Madhupur,25.83518389,88.97321692
3844,1922,Gomnati,26.20413322,88.85112783
3846,2671,Ketkibari,26.21421414,88.80554817
3847,2319,Jorabari,26.16685679,88.80036712
3848,420,Bamunia,26.16283112,88.85193431
3850,881,Boragari,26.13238989,88.83066397
3851,1588,Domar,26.11100963,88.7958779
3853,2056,Harinchara,26.06526624,88.84579013
3855,361,Balapara,26.19335984,88.90176028
3857,2741,Khogakharibari,26.22480811,88.96637366
3858,1812,Gayabari,26.19229565,88.97233287
3865,1919,Golmunda,26.03796747,89.07424155
3866,363,Balagram,26.05835426,89.00453186
3867,1920,Golna,26.082935,88.93964922
3868,1509,Dharmapal,26.07379623,88.8979157
3870,3193,Mirganj,26.02628076,88.94629508
3872,2760,Khutamara,25.9750551,88.96389369
3874,2406,Kaimari,25.97636916,89.07093497
3875,515,Barabhita,25.95084812,89.02997855
3876,3920,Putimari,25.93366748,88.99157691
3877,3506,Nitai,25.88988037,88.97479808
3878,306,Bahagili,25.85888188,89.00137197
3879,989,Chandkhana,25.8372083,89.0470177
3880,2765,Kishoreganj,25.89550255,89.034593
3881,4029,Ranachandi,25.93518373,89.07370456
3882,1789,Garagram,25.90373159,89.08078998
3883,3003,Magura,25.85807042,89.07721871
3885,1948,Gorgram,25.99606652,88.75316562
3888,4015,Ramnagar,25.96966064,88.90294522
3889,2372,Kachukata,25.94730031,88.94652612
3891,2175,Itakhola,25.93119502,88.87981785
3892,2828,Kundapukur,25.89927876,88.83427818
3895,1131,Charaikhola,25.87411237,88.8963792
3898,4760,Tupamari,25.98345472,88.86847389
3899,4073,Rasulpur,25.44556425,89.41348926
3902,2239,Jamalpur,25.40583701,89.42870044
3903,1683,Faridpur,25.3952056,89.39259285
3904,1499,Dhaperhat,25.35711834,89.36658865
3905,2142,Idilpur,25.31743826,89.37460394
3911,3070,Malibari,25.40857972,89.58629857
3914,402,Ballamjhar,25.33947671,89.49985767
3915,3992,Ramchandrapur,25.28989425,89.50226965
3916,261,Badiakhali,25.24844095,89.54201983
3917,864,Boali,25.29713196,89.5492222
3918,1835,Ghagoa,25.36260723,89.58854164
3919,1876,Gidari,25.34048617,89.60941393
3920,2747,Kholahati,25.36495585,89.55110432
3921,3267,Mollarchar,25.3821084,89.70586148
3922,2514,Kamarjani,25.36428147,89.64970863
3923,2767,Kishoregari,25.27905321,89.30188289
3925,3615,Palashbari,25.27957402,89.35241587
3926,567,Barisal,25.25046972,89.38646341
3928,678,Betkapa,25.29249595,89.44650944
3931,2055,Harinathpur,25.22193223,89.50409536
3932,3575,Padumsahar,25.20445222,89.54352261
3936,2369,Kachua,25.12900211,89.51698347
3940,2500,Kamalerpara,25.08150693,89.5309482
3941,880,Bonarpara,25.1689628,89.52014145
3942,2519,Kamdia,25.20642386,89.23220238
3943,2616,Katabari,25.20088097,89.30234782
3944,4358,Shakhahar,25.16474659,89.24861172
3945,3951,Rajahar,25.12140751,89.26656084
3946,4260,Sapmara,25.15701903,89.31816474
3948,4654,Talukkanupur,25.20299811,89.40496303
3949,3358,Nakai,25.22228053,89.44405475
3950,2064,Harirampur,25.19089761,89.47674392
3953,1970,Gumaniganj,25.12488315,89.34212595
3955,2769,Kochasahar,25.08831355,89.43197701
3956,4413,Shibpur,25.12305362,89.43234108
3957,3027,Mahimaganj,25.11425666,89.48061636
3958,4362,Shalmara,25.06965282,89.48735832
3960,4529,Sonaroy,25.55994724,89.4799501
3961,4678,Tarapur,25.59838767,89.51866961
3962,653,Belka,25.55327471,89.56651478
3966,1524,Dhopadanga,25.4624496,89.51134707
3968,4374,Shantiram,25.50478281,89.56790648
3970,4555,Sreepur,25.43770655,89.60535136
3971,987,Chandipur,25.49167552,89.63526943
3972,2567,Kapasia,25.45368271,89.66926163
3973,2060,Haripur,25.53829105,89.62742861
3974,2537,Kanchipara,25.31482157,89.61499774
3975,4792,Uria,25.26344369,89.61845861
3976,4768,Udakhali,25.26846743,89.58403038
3977,1822,Gazaria,25.21241261,89.60250882
3979,1664,Erendabari,25.29398944,89.7115247
3980,1709,Fazlupur,25.25832529,89.66279293
3981,4125,Ruhea,26.17082465,88.40031301
3982,55,Akhanagar,26.11640579,88.38021284
3984,523,Baragaon,26.13609067,88.48737648
3985,378,Balia,26.12636044,88.56221654
3986,226,Auliapur,26.09066483,88.52206982
3987,1209,Chilarang,26.08075064,88.3729657
3988,3937,Rahimanpur,26.04019758,88.39035168
3989,4119,Roypur,26.03118517,88.33195483
3990,2240,Jamalpur,25.98725101,88.3818304
3991,3242,Mohammadpur,25.98026489,88.44079622
3992,4218,Salandar,26.05658901,88.49233153
3993,1791,Gareya,26.04856414,88.57310461
3994,3950,Rajagaon,26.1607258,88.448282
3995,1405,Debipur,26.17063071,88.52186076
3996,3421,Nargun,25.98298188,88.4694812
3997,2196,Jagannathpur,26.00012275,88.51108187
3998,4588,Sukhanpukhari,26.09328334,88.60941846
3999,638,Begunbari,25.9382217,88.47970784
4002,791,Bhomradaha,25.92474448,88.34766068
4004,2701,Khangaon,25.94727283,88.37087451
4005,4200,Saidpur,25.88794712,88.4537071
4006,3832,Pirganj,25.87077628,88.32011589
4007,2009,Hajipur,25.83413392,88.29652358
4008,1391,Daulatpur,25.81718458,88.36267528
4009,4337,Sengaon,25.78970892,88.3058967
4010,2180,Jabarhat,25.76013281,88.35535759
4011,332,Bairchuna,25.70879431,88.40182437
4015,2936,Lehemba,25.86286247,88.26799365
4016,247,Bachor,25.91476458,88.29303224
4017,2611,Kashipur,26.03672596,88.21361935
4019,3536,Nonduar,25.92711434,88.22727042
4020,1833,Gedura,25.95800516,88.15269266
4021,113,Amgaon,25.90906066,88.16320422
4022,359,Bakua,25.89580448,88.12183542
4023,1339,Dangipara,25.85280394,88.14968845
4024,2061,Haripur,25.81189592,88.1450824
4025,759,Bhaturia,25.82063274,88.20341588
4026,3679,Paria,26.159772,88.25882829
4027,1143,Charol,26.12627579,88.32184335
4030,1614,Duosuo,26.07071449,88.2896366
4032,125,Amjankhore,26.12374467,88.19551674
4034,3271,Mominpur,25.76265785,89.11660239
4036,4801,Uttam,25.8022919,89.20973623
4039,4301,Satgara,25.73000149,89.21457949
4040,3969,Rajendrapur,25.76034101,89.1854766
4042,967,Chandanpat,25.71897051,89.16374761
4045,674,Betgari,25.87491086,89.12288027
4054,3535,Nohali,25.94787028,89.14305796
4056,68,Alampur,25.77764385,88.9681198
4060,3929,Radhanagar,25.7253281,88.99670203
4061,1945,Gopinathpur,25.71105916,88.95945721
4063,2869,Kutubpur,25.6654542,89.09535051
4066,2950,Lohanipara,25.59030577,89.1057114
4067,1935,Gopalpur,25.6946369,89.13470107
4071,4045,Ranipukur,25.63774889,89.23121394
4074,370,Balarhat,25.58105822,89.36603631
4075,2387,Kafrikhal,25.60637019,89.31449621
4077,1167,Chengmari,25.56245423,89.21921748
4081,3212,Mirzapur,25.53191559,89.36674658
